# Name: Ericsson GRU 04 02 (NCD 901 78/1)
# Chipset: ST Teseo III (Trimble customized firmware)
# Submitter: Luke Jenkins <lukejenkins@users.noreply.github.com>
# Date: 2026-02-12
# Location: Ogden, Utah, USA. 41.19N 111.94W
#
# Sister unit: test/daemon/ericsson-gru04.log (GRU 04 01, NCD 901 65/1)
#
# Both GRU 04 01 and 04 02 variants run identical firmware with identical protocol.
# Hardware difference: GRU 04 01 has SMA RF connector, GRU 04 02 has QMA RF connector.
#
# This capture is 70 seconds long, just long enough to capture at least two copies
# of every message type.
#
# Coverage: All 19 sentence types:
# - 7 standard NMEA: GNZDA, GNGNS, GNVTG, GNGLL, GPGGA, GPGSV, GLGSV
# - 9 PERC proprietary: GPsts, GPver, GPppr, GPppf, GPavp, GPreh, FWsts, GPctr, GPdbg
# - 3 PTNL proprietary: PTNLRBA, PTNLRTP, PTNLRXO
#
# This file is Copyright by the GPSD project
# BSD terms apply: see the file COPYING in the distribution root for details.
$GNZDA,213712.000,12,02,2026,,*4B
$GNGNS,213712.000,4111.59903,N,11156.54809,W,AANN,13,0.93,01482.5,-016.5,,*52
$GNVTG,000.0,T,348.3,M,000.0,N,000.1,K,A*30
$GNGLL,4111.59903,N,11156.54809,W,213712.000,A,A*50
$PTNLRBA,1,0*56
$PTNLRTP,T,21.35,3.0*2E
$PTNLRXO,1,-270.721*70
$PERC,GPdbg,1,3,1,0243100,0192600,0252101,0212705,0113700,0172400,0124500*55
$PERC,GPdbg,1,3,2,0223200,0062700,0884300,0772700,0762700,0701901,0873700*5F
$PERC,GPdbg,1,3,3,0783700,,,,,,*54
$PERC,GPdbg,1,10,07FF,11,19,1,2,0,02000,02000,4,1,+015.6,+007.8,02,06,0000*72
$PERC,GPppf,-06.1,-005.8,0,18,0*46
$PERC,GPppr,423451,02405,00050,12,0,0*4D
$PERC,GPsts,2,0,2,010011111111011111*7B
$GNZDA,213713.000,12,02,2026,,*4A
$GNGNS,213713.000,4111.59903,N,11156.54809,W,AANN,13,0.93,01482.5,-016.5,,*53
$GNVTG,000.0,T,348.3,M,000.0,N,000.1,K,A*30
$GNGLL,4111.59903,N,11156.54809,W,213713.000,A,A*51
$PTNLRBA,1,0*56
$PTNLRTP,T,21.35,3.0*2E
$PTNLRXO,1,-270.751*77
$PERC,GPdbg,1,3,1,0243100,0192600,0252101,0212605,0113700,0172400,0124500*54
$PERC,GPdbg,1,3,2,0223200,0062600,0884300,0772700,0762700,0701901,0873700*5E
$PERC,GPdbg,1,3,3,0783700,,,,,,*54
$PERC,GPdbg,1,10,07FF,11,19,1,2,0,02000,02000,4,1,+015.7,+007.8,02,06,0000*73
$PERC,GPppf,+03.0,+001.1,0,18,0*4F
$PERC,GPppr,423452,02405,00050,12,0,0*4E
$PERC,GPsts,2,0,2,010011111111011111*7B
$PERC,GPver,GRU 04 02,NCD 901 78/1,R1C,E640019302.1949*0D
$PERC,GPctr,R,,,1,,*39
$PERC,GPavp,4111.5950,N,11156.5597,W,001492.2,M*2E
$GNZDA,213714.000,12,02,2026,,*4D
$GNGNS,213714.000,4111.59903,N,11156.54809,W,AANN,13,0.93,01482.5,-016.5,,*54
$GNVTG,000.0,T,348.3,M,000.0,N,000.1,K,A*30
$GNGLL,4111.59903,N,11156.54809,W,213714.000,A,A*56
$PTNLRBA,1,0*56
$PTNLRTP,T,21.35,3.0*2E
$PTNLRXO,1,-270.774*70
$PERC,GPdbg,1,3,1,0243100,0192600,0252101,0212605,0113700,0172400,0124500*54
$PERC,GPdbg,1,3,2,0223200,0062600,0884300,0772700,0762700,0701901,0873700*5E
$PERC,GPdbg,1,3,3,0783700,,,,,,*54
$PERC,GPdbg,1,10,07FF,11,19,1,2,0,02000,02000,4,1,+015.7,+007.8,02,06,0000*73
$PERC,GPppf,-02.9,+009.1,0,18,0*49
$PERC,GPppr,423453,02405,00050,12,0,0*4F
$PERC,GPsts,2,0,2,010011111111011111*7B
$GNZDA,213715.000,12,02,2026,,*4C
$GPGGA,213715.000,4111.59903,N,11156.54809,W,1,13,0.93,01482.5,M,-016.5,M,,*61
$GNGNS,213715.000,4111.59903,N,11156.54809,W,AANN,13,0.93,01482.5,-016.5,,*55
$GNVTG,000.0,T,348.3,M,000.0,N,000.0,K,A*31
$GNGLL,4111.59903,N,11156.54809,W,213715.000,A,A*57
$GPGSA,A,3,24,19,11,17,12,22,06,,,,,,1.75,0.93,1.48*0B
$GNGSA,A,3,88,77,76,87,78,,,,,,,,1.75,0.93,1.48*19
$PTNLRBA,1,0*56
$PTNLRTP,T,21.35,3.0*2E
$PTNLRXO,1,-270.666*72
$PERC,GPdbg,1,3,1,0243100,0192600,0252101,0212705,0113700,0172400,0124500*55
$PERC,GPdbg,1,3,2,0223100,0062500,0884300,0772700,0762700,0701901,0873700*5E
$PERC,GPdbg,1,3,3,0783800,,,,,,*5B
$PERC,GPdbg,1,10,07FF,11,19,1,2,0,02000,02000,4,1,+015.7,+007.8,02,06,0000*73
$PERC,GPppf,-06.9,+010.0,0,18,0*44
$PERC,GPppr,423454,02405,00050,12,0,0*48
$PERC,GPsts,2,0,2,010011111111011111*7B
$GNZDA,213716.000,12,02,2026,,*4F
$GNGNS,213716.000,4111.59903,N,11156.54809,W,AANN,13,0.93,01482.5,-016.5,,*56
$GNVTG,000.0,T,348.3,M,000.0,N,000.1,K,A*30
$GNGLL,4111.59903,N,11156.54809,W,213716.000,A,A*54
$GPGSV,3,1,09,24,35,234,31,19,42,060,26,25,16,310,20,21,09,156,27*74
$GPGSV,3,2,09,11,61,190,37,17,19,070,24,12,56,313,45,22,18,123,31*7E
$GPGSV,3,3,09,06,64,062,25,,,,,,,,,,,,*47
$GLGSV,2,1,06,88,49,239,43,77,70,156,26,76,20,148,27,70,02,006,19*63
$GLGSV,2,2,06,87,57,025,37,78,46,324,38,,,,,,,,*6E
$PTNLRBA,1,0*56
$PTNLRTP,T,21.35,3.0*2E
$PTNLRXO,1,-270.777*73
$PERC,GPppf,+06.6,+013.0,0,18,0*4E
$PERC,GPppr,423455,02405,00050,12,0,0*49
$PERC,GPsts,2,0,2,010011111111011111*7B
$PERC,FWsts,010100,,,0,0,0*7D
$PERC,GPreh,00:00:00 00/00/0000,8*58
$GNZDA,213717.000,12,02,2026,,*4E
$GNGNS,213717.000,4111.59903,N,11156.54809,W,AANN,13,0.93,01482.5,-016.5,,*57
$GNVTG,000.0,T,348.3,M,000.0,N,000.1,K,A*30
$GNGLL,4111.59903,N,11156.54809,W,213717.000,A,A*55
$PTNLRBA,1,0*56
$PTNLRTP,T,21.34,3.0*2F
$PTNLRXO,1,-270.731*71
$PERC,GPdbg,1,3,1,0243100,0192600,0252001,0212705,0113700,0172400,0124600*57
$PERC,GPdbg,1,3,2,0223100,0062500,0884300,0772600,0762700,0701901,0873700*5F
$PERC,GPdbg,1,3,3,0783800,,,,,,*5B
$PERC,GPdbg,1,10,07FF,11,19,1,2,0,02000,02000,4,1,+015.7,+007.8,02,06,0000*73
$PERC,GPppf,-07.6,+009.5,0,18,0*47
$PERC,GPppr,423456,02405,00050,12,0,0*4A
$PERC,GPsts,2,0,2,010011111111011111*7B
$GNZDA,213718.000,12,02,2026,,*41
$GNGNS,213718.000,4111.59903,N,11156.54809,W,AANN,13,0.93,01482.5,-016.5,,*58
$GNVTG,000.0,T,348.3,M,000.0,N,000.1,K,A*30
$GNGLL,4111.59903,N,11156.54809,W,213718.000,A,A*5A
$PTNLRBA,1,0*56
$PTNLRTP,T,21.34,3.0*2F
$PTNLRXO,1,-270.836*79
$PERC,GPdbg,1,3,1,0243100,0192600,0252001,0212705,0113700,0172500,0124600*56
$PERC,GPdbg,1,3,2,0223100,0062500,0884300,0772600,0762700,0701801,0873700*5E
$PERC,GPdbg,1,3,3,0783800,,,,,,*5B
$PERC,GPdbg,1,10,07FF,11,19,1,2,0,02000,02000,4,1,+015.7,+007.8,02,06,0000*73
$PERC,GPppf,-04.4,+002.2,0,18,0*4A
$PERC,GPppr,423457,02405,00050,12,0,0*4B
$PERC,GPsts,2,0,2,010011111111011111*7B
$GNZDA,213719.000,12,02,2026,,*40
$GNGNS,213719.000,4111.59903,N,11156.54809,W,AANN,13,0.93,01482.5,-016.5,,*59
$GNVTG,000.0,T,348.3,M,000.0,N,000.0,K,A*31
$GNGLL,4111.59903,N,11156.54809,W,213719.000,A,A*5B
$PTNLRBA,1,0*56
$PTNLRTP,T,21.34,3.0*2F
$PTNLRXO,1,-270.767*72
$PERC,GPdbg,1,3,1,0243100,0192500,0252001,0212705,0113700,0172500,0124600*55
$PERC,GPdbg,1,3,2,0223200,0062500,0884300,0772600,0762700,0701801,0873700*5D
$PERC,GPdbg,1,3,3,0783800,,,,,,*5B
$PERC,GPdbg,1,10,07FF,11,19,1,2,0,02000,02000,4,1,+015.7,+007.8,02,06,0000*73
$PERC,GPppf,-00.7,+000.3,0,18,0*4E
$PERC,GPppr,423458,02405,00050,12,0,0*44
$PERC,GPsts,2,0,2,010011111111011111*7B
$GNZDA,213720.000,12,02,2026,,*4A
$GNGNS,213720.000,4111.59903,N,11156.54809,W,AANN,13,0.93,01482.5,-016.5,,*53
$GNVTG,000.0,T,348.3,M,000.0,N,000.0,K,A*31
$GNGLL,4111.59903,N,11156.54809,W,213720.000,A,A*51
$PTNLRBA,1,0*56
$PTNLRTP,T,21.34,3.0*2F
$PTNLRXO,1,-270.748*7F
$PERC,GPdbg,1,3,1,0243100,0192500,0252001,0212705,0113700,0172500,0124600*55
$PERC,GPdbg,1,3,2,0223200,0062400,0884300,0772600,0762700,0701801,0873700*5C
$PERC,GPdbg,1,3,3,0783800,,,,,,*5B
$PERC,GPdbg,1,10,07FF,11,19,1,2,0,02000,02000,4,1,+015.7,+007.8,02,06,0000*73
$PERC,GPppf,+03.0,-002.1,0,18,0*4A
$PERC,GPppr,423459,02405,00050,12,0,0*45
$PERC,GPsts,2,0,2,010011111111011111*7B
$GNZDA,213721.000,12,02,2026,,*4B
$GNGNS,213721.000,4111.59903,N,11156.54809,W,AANN,13,0.93,01482.5,-016.5,,*52
$GNVTG,000.0,T,348.3,M,000.1,N,000.1,K,A*31
$GNGLL,4111.59903,N,11156.54809,W,213721.000,A,A*50
$PTNLRBA,1,0*56
$PTNLRTP,T,21.34,3.0*2F
$PTNLRXO,1,-270.673*76
$PERC,GPdbg,1,3,1,0243100,0192500,0252001,0212705,0113700,0172500,0124600*55
$PERC,GPdbg,1,3,2,0223200,0062400,0884300,0772600,0762700,0701801,0873700*5C
$PERC,GPdbg,1,3,3,0783800,,,,,,*5B
$PERC,GPdbg,1,10,07FF,11,19,1,2,0,02000,02000,4,1,+015.7,+007.8,02,06,0000*73
$PERC,GPppf,+06.3,+020.7,0,18,0*4C
$PERC,GPppr,423460,02405,00050,12,0,0*4F
$PERC,GPsts,2,0,2,010011111111011111*7B
$GNZDA,213722.000,12,02,2026,,*48
$GNGNS,213722.000,4111.59903,N,11156.54809,W,AANN,13,0.93,01482.5,-016.5,,*51
$GNVTG,000.0,T,348.3,M,000.0,N,000.1,K,A*30
$GNGLL,4111.59903,N,11156.54809,W,213722.000,A,A*53
$PTNLRBA,1,0*56
$PTNLRTP,T,21.34,3.0*2F
$PTNLRXO,1,-270.653*74
$PERC,GPdbg,1,3,1,0243100,0192500,0252001,0212705,0113700,0172500,0124600*55
$PERC,GPdbg,1,3,2,0223200,0062400,0884300,0772600,0762700,0701801,0873700*5C
$PERC,GPdbg,1,3,3,0783800,,,,,,*5B
$PERC,GPdbg,1,10,07FF,11,19,1,2,0,02000,02000,4,1,+015.7,+007.8,02,06,0000*73
$PERC,GPppf,-01.2,-014.1,0,18,0*4B
$PERC,GPppr,423461,02405,00050,12,0,0*4E
$PERC,GPsts,2,0,2,010011111111011111*7B
$GNZDA,213723.000,12,02,2026,,*49
$GNGNS,213723.000,4111.59903,N,11156.54809,W,AANN,13,0.93,01482.5,-016.5,,*50
$GNVTG,000.0,T,348.3,M,000.0,N,000.1,K,A*30
$GNGLL,4111.59903,N,11156.54809,W,213723.000,A,A*52
$PTNLRBA,1,0*56
$PTNLRTP,T,21.35,3.0*2E
$PTNLRXO,1,-270.738*78
$PERC,GPdbg,1,3,1,0243100,0192500,0252001,0212705,0113700,0172600,0124600*56
$PERC,GPdbg,1,3,2,0223200,0062400,0884300,0772600,0762700,0701901,0873700*5D
$PERC,GPdbg,1,3,3,0783800,,,,,,*5B
$PERC,GPdbg,1,10,07FF,11,19,1,2,0,02000,02000,4,1,+015.7,+007.8,02,06,0000*73
$PERC,GPppf,+03.5,-017.2,0,18,0*48
$PERC,GPppr,423462,02405,00050,12,0,0*4D
$PERC,GPsts,2,0,2,010011111111011111*7B
$GNZDA,213724.000,12,02,2026,,*4E
$GNGNS,213724.000,4111.59903,N,11156.54809,W,AANN,13,0.93,01482.5,-016.5,,*57
$GNVTG,000.0,T,348.3,M,000.0,N,000.0,K,A*31
$GNGLL,4111.59903,N,11156.54809,W,213724.000,A,A*55
$PTNLRBA,1,0*56
$PTNLRTP,T,21.34,3.0*2F
$PTNLRXO,1,-270.682*78
$PERC,GPdbg,1,3,1,0243100,0192500,0252001,0212705,0113700,0172600,0124600*56
$PERC,GPdbg,1,3,2,0223200,0062300,0884300,0772600,0762700,0701901,0873700*5A
$PERC,GPdbg,1,3,3,0783800,,,,,,*5B
$PERC,GPdbg,1,10,07FF,11,19,1,2,0,02000,02000,4,1,+015.7,+007.8,02,06,0000*73
$PERC,GPppf,+04.5,+010.0,0,18,0*4C
$PERC,GPppr,423463,02405,00050,12,0,0*4C
$PERC,GPsts,2,0,2,010011111111011111*7B
$GNZDA,213725.000,12,02,2026,,*4F
$GNGNS,213725.000,4111.59903,N,11156.54809,W,AANN,13,0.93,01482.5,-016.5,,*56
$GNVTG,000.0,T,348.3,M,000.1,N,000.1,K,A*31
$GNGLL,4111.59903,N,11156.54809,W,213725.000,A,A*54
$PTNLRBA,1,0*56
$PTNLRTP,T,21.34,3.0*2F
$PTNLRXO,1,-270.748*7F
$PERC,GPdbg,1,3,1,0243100,0192500,0252001,0212705,0113700,0172600,0124600*56
$PERC,GPdbg,1,3,2,0223200,0062300,0884300,0772600,0762700,0701901,0873700*5A
$PERC,GPdbg,1,3,3,0783800,,,,,,*5B
$PERC,GPdbg,1,10,07FF,11,19,1,2,0,02000,02000,4,1,+015.7,+007.9,02,06,0000*72
$PERC,GPppf,+07.6,+004.7,0,18,0*4E
$PERC,GPppr,423464,02405,00050,12,0,0*4B
$PERC,GPsts,2,0,2,010011111111011111*7B
$GNZDA,213726.000,12,02,2026,,*4C
$GNGNS,213726.000,4111.59903,N,11156.54809,W,AANN,13,0.93,01482.5,-016.5,,*55
$GNVTG,000.0,T,348.3,M,000.0,N,000.0,K,A*31
$GNGLL,4111.59903,N,11156.54809,W,213726.000,A,A*57
$PTNLRBA,1,0*56
$PTNLRTP,T,21.35,3.0*2E
$PTNLRXO,1,-270.640*76
$PERC,GPdbg,1,3,1,0243100,0192500,0252001,0212705,0113700,0172600,0124600*56
$PERC,GPdbg,1,3,2,0223200,0062200,0884300,0772600,0762700,0701801,0873700*5A
$PERC,GPdbg,1,3,3,0783800,,,,,,*5B
$PERC,GPdbg,1,10,07FF,11,19,1,2,0,02000,02000,4,1,+015.7,+007.9,02,06,0000*72
$PERC,GPppf,-03.5,-023.3,0,18,0*48
$PERC,GPppr,423465,02405,00050,12,0,0*4A
$PERC,GPsts,2,0,2,010011111111011111*7B
$GNZDA,213727.000,12,02,2026,,*4D
$GNGNS,213727.000,4111.59903,N,11156.54809,W,AANN,13,0.93,01482.5,-016.5,,*54
$GNVTG,000.0,T,348.3,M,000.0,N,000.1,K,A*30
$GNGLL,4111.59903,N,11156.54809,W,213727.000,A,A*56
$PTNLRBA,1,0*56
$PTNLRTP,T,21.35,3.0*2E
$PTNLRXO,1,-270.695*7E
$PERC,GPdbg,1,3,1,0243100,0192500,0252001,0212705,0113700,0172600,0124600*56
$PERC,GPdbg,1,3,2,0223200,0062100,0884300,0772600,0762700,0701801,0873700*59
$PERC,GPdbg,1,3,3,0783800,,,,,,*5B
$PERC,GPdbg,1,10,07FF,11,19,1,2,0,02000,02000,4,1,+015.7,+007.9,02,06,0000*72
$PERC,GPppf,-04.4,-015.9,0,18,0*41
$PERC,GPppr,423466,02405,00050,12,0,0*49
$PERC,GPsts,2,0,2,010011111111011111*7B
$GNZDA,213728.000,12,02,2026,,*42
$GNGNS,213728.000,4111.59903,N,11156.54809,W,AANN,13,0.93,01482.5,-016.5,,*5B
$GNVTG,000.0,T,348.3,M,000.0,N,000.0,K,A*31
$GNGLL,4111.59903,N,11156.54809,W,213728.000,A,A*59
$PTNLRBA,1,0*56
$PTNLRTP,T,21.35,3.0*2E
$PTNLRXO,1,-270.816*7B
$PERC,GPdbg,1,3,1,0243100,0192500,0252001,0212705,0113700,0172600,0124600*56
$PERC,GPdbg,1,3,2,0223200,0062100,0884300,0772600,0762700,0701801,0873700*59
$PERC,GPdbg,1,3,3,0783800,,,,,,*5B
$PERC,GPdbg,1,10,07FF,11,19,1,2,0,02000,02000,4,1,+015.8,+007.9,02,06,0000*7D
$PERC,GPppf,+06.4,+014.9,0,18,0*42
$PERC,GPppr,423467,02405,00050,12,0,0*48
$PERC,GPsts,2,0,2,010011111111011111*7B
$GNZDA,213729.000,12,02,2026,,*43
$GNGNS,213729.000,4111.59903,N,11156.54809,W,AANN,13,0.93,01482.5,-016.5,,*5A
$GNVTG,000.0,T,348.3,M,000.0,N,000.0,K,A*31
$GNGLL,4111.59903,N,11156.54809,W,213729.000,A,A*58
$PTNLRBA,1,0*56
$PTNLRTP,T,21.35,3.0*2E
$PTNLRXO,1,-270.845*7D
$PERC,GPdbg,1,3,1,0243100,0192500,0252001,0212705,0113700,0172600,0124600*56
$PERC,GPdbg,1,3,2,0223200,0062000,0884400,0772600,0762800,0701801,0873700*50
$PERC,GPdbg,1,3,3,0783800,,,,,,*5B
$PERC,GPdbg,1,10,07FF,11,19,1,2,0,02000,02000,4,1,+015.8,+007.9,02,06,0000*7D
$PERC,GPppf,+05.2,+015.3,0,18,0*4C
$PERC,GPppr,423468,02405,00050,12,0,0*47
$PERC,GPsts,2,0,2,010011111111011111*7B
$GNZDA,213730.000,12,02,2026,,*4B
$GNGNS,213730.000,4111.59903,N,11156.54809,W,AANN,13,0.93,01482.5,-016.5,,*52
$GNVTG,000.0,T,348.3,M,000.1,N,000.2,K,A*32
$GNGLL,4111.59903,N,11156.54809,W,213730.000,A,A*50
$PTNLRBA,1,0*56
$PTNLRTP,T,21.34,3.0*2F
$PTNLRXO,1,-270.845*7D
$PERC,GPdbg,1,3,1,0243100,0192500,0251901,0212705,0113800,0172600,0124600*53
$PERC,GPdbg,1,3,2,0223200,0062000,0884400,0772600,0762800,0701801,0873700*50
$PERC,GPdbg,1,3,3,0783800,,,,,,*5B
$PERC,GPdbg,1,10,07FF,11,19,1,2,0,02000,02000,4,1,+015.8,+007.9,02,06,0000*7D
$PERC,GPppf,+07.4,+009.3,0,18,0*45
$PERC,GPppr,423469,02405,00050,12,0,0*46
$PERC,GPsts,2,0,2,010011111111011111*7B
$GNZDA,213731.000,12,02,2026,,*4A
$GNGNS,213731.000,4111.59903,N,11156.54809,W,AANN,13,0.93,01482.5,-016.5,,*53
$GNVTG,000.0,T,348.3,M,000.1,N,000.1,K,A*31
$GNGLL,4111.59903,N,11156.54809,W,213731.000,A,A*51
$PTNLRBA,1,0*56
$PTNLRTP,T,21.34,3.0*2F
$PTNLRXO,1,-270.728*79
$PERC,GPdbg,1,3,1,0243100,0192500,0251901,0212705,0113800,0172600,0124600*53
$PERC,GPdbg,1,3,2,0223200,0062000,0884400,0772600,0762800,0701801,0873700*50
$PERC,GPdbg,1,3,3,0783800,,,,,,*5B
$PERC,GPdbg,1,10,07FF,11,19,1,2,0,02000,02000,4,1,+015.8,+007.9,02,06,0000*7D
$PERC,GPppf,-03.6,-020.6,0,18,0*4D
$PERC,GPppr,423470,02405,00050,12,0,0*4E
$PERC,GPsts,2,0,2,010011111111011111*7B
$GNZDA,213732.000,12,02,2026,,*49
$GNGNS,213732.000,4111.59903,N,11156.54809,W,AANN,13,0.93,01482.5,-016.5,,*50
$GNVTG,000.0,T,348.3,M,000.1,N,000.1,K,A*31
$GNGLL,4111.59903,N,11156.54809,W,213732.000,A,A*52
$PTNLRBA,1,0*56
$PTNLRTP,T,21.34,3.0*2F
$PTNLRXO,1,-270.761*74
$PERC,GPdbg,1,3,1,0243100,0192500,0251901,0212705,0113800,0172600,0124600*53
$PERC,GPdbg,1,3,2,0223300,0061900,0884400,0772600,0762800,0701901,0873600*5B
$PERC,GPdbg,1,3,3,0783900,,,,,,*5A
$PERC,GPdbg,1,10,07FF,11,19,1,2,0,02000,02000,4,1,+015.8,+007.9,02,06,0000*7D
$PERC,GPppf,-03.9,+010.5,0,18,0*44
$PERC,GPppr,423471,02405,00050,12,0,0*4F
$PERC,GPsts,2,0,2,010011111111011111*7B
$GNZDA,213733.000,12,02,2026,,*48
$GNGNS,213733.000,4111.59903,N,11156.54809,W,AANN,13,0.93,01482.5,-016.5,,*51
$GNVTG,000.0,T,348.3,M,000.1,N,000.2,K,A*32
$GNGLL,4111.59903,N,11156.54809,W,213733.000,A,A*53
$PTNLRBA,1,0*56
$PTNLRTP,T,21.34,3.0*2F
$PTNLRXO,1,-270.751*77
$PERC,GPdbg,1,3,1,0243200,0192500,0251901,0212705,0113800,0172600,0124600*50
$PERC,GPdbg,1,3,2,0223300,0061900,0884400,0772600,0762800,0701801,0873600*5A
$PERC,GPdbg,1,3,3,0783900,,,,,,*5A
$PERC,GPdbg,1,10,07FF,11,19,1,2,0,02000,02000,4,1,+015.8,+007.9,02,06,0000*7D
$PERC,GPppf,-01.9,+004.6,0,18,0*40
$PERC,GPppr,423472,02405,00050,12,0,0*4C
$PERC,GPsts,2,0,2,010011111111011111*7B
$GNZDA,213734.000,12,02,2026,,*4F
$GNGNS,213734.000,4111.59903,N,11156.54809,W,AANN,13,0.93,01482.5,-016.5,,*56
$GNVTG,000.0,T,348.3,M,000.1,N,000.2,K,A*32
$GNGLL,4111.59903,N,11156.54809,W,213734.000,A,A*54
$PTNLRBA,1,0*56
$PTNLRTP,T,21.34,3.0*2F
$PTNLRXO,1,-270.611*72
$PERC,GPdbg,1,3,1,0243200,0192400,0251901,0212705,0113800,0172500,0124600*52
$PERC,GPdbg,1,3,2,0223200,0061600,0884400,0772600,0762800,0701901,0873600*55
$PERC,GPdbg,1,3,3,0783900,,,,,,*5A
$PERC,GPdbg,1,10,07FF,11,19,1,2,0,02000,02000,4,1,+015.8,+007.9,02,06,0000*7D
$PERC,GPppf,+01.1,-000.4,0,18,0*4E
$PERC,GPppr,423473,02405,00050,12,0,0*4D
$PERC,GPsts,2,0,2,010011111111011111*7B
$GNZDA,213735.000,12,02,2026,,*4E
$GNGNS,213735.000,4111.59903,N,11156.54809,W,AANN,12,0.96,01482.5,-016.5,,*53
$GNVTG,000.0,T,348.3,M,000.1,N,000.1,K,A*31
$GNGLL,4111.59903,N,11156.54809,W,213735.000,A,A*55
$PTNLRBA,1,0*56
$PTNLRTP,T,21.34,3.0*2F
$PTNLRXO,1,-270.624*74
$PERC,GPdbg,1,2,1,0243200,0192400,0251901,0212705,0113800,0172500,0124600*53
$PERC,GPdbg,1,2,2,0223200,0884400,0772600,0762800,0701901,0873600,0783900*50
$PERC,GPdbg,1,10,07FF,11,19,1,2,0,02000,02000,4,1,+015.8,+007.9,02,06,0000*7D
$PERC,GPppf,+04.0,-029.3,0,18,0*46
$PERC,GPppr,423474,02405,00050,11,0,0*49
$PERC,GPsts,2,0,2,010011111111011111*7B
$GNZDA,213736.000,12,02,2026,,*4D
$GNGNS,213736.000,4111.59903,N,11156.54809,W,AANN,13,0.93,01482.5,-016.5,,*54
$GNVTG,000.0,T,348.3,M,000.0,N,000.1,K,A*30
$GNGLL,4111.59903,N,11156.54809,W,213736.000,A,A*56
$PTNLRBA,1,0*56
$PTNLRTP,T,21.34,3.0*2F
$PTNLRXO,1,-270.594*7C
$PERC,GPdbg,1,3,1,0243200,0192400,0251901,0212705,0113800,0172500,0124600*52
$PERC,GPdbg,1,3,2,0223200,0061400,0884400,0772600,0762800,0701901,0873600*57
$PERC,GPdbg,1,3,3,0783900,,,,,,*5A
$PERC,GPdbg,1,10,07FF,11,19,1,2,0,02000,02000,4,1,+015.8,+007.9,02,06,0000*7D
$PERC,GPppf,+00.5,+000.7,0,18,0*4E
$PERC,GPppr,423475,02405,00050,12,0,0*4B
$PERC,GPsts,2,0,2,010011111111011111*7B
$GNZDA,213737.000,12,02,2026,,*4C
$GNGNS,213737.000,4111.59903,N,11156.54809,W,AANN,13,0.93,01482.5,-016.5,,*55
$GNVTG,000.0,T,348.3,M,000.1,N,000.1,K,A*31
$GNGLL,4111.59903,N,11156.54809,W,213737.000,A,A*57
$PTNLRBA,1,0*56
$PTNLRTP,T,21.34,3.0*2F
$PTNLRXO,1,-270.516*76
$PERC,GPdbg,1,3,1,0243100,0192400,0251901,0212705,0113800,0172500,0124600*51
$PERC,GPdbg,1,3,2,0223200,0061400,0884400,0772600,0762800,0701901,0873600*57
$PERC,GPdbg,1,3,3,0783900,,,,,,*5A
$PERC,GPdbg,1,10,07FF,11,19,1,2,0,02000,02000,4,1,+015.8,+007.9,02,06,0000*7D
$PERC,GPppf,-02.8,+003.5,0,18,0*46
$PERC,GPppr,423476,02405,00050,12,0,0*48
$PERC,GPsts,2,0,2,010011111111011111*7B
$GNZDA,213738.000,12,02,2026,,*43
$GNGNS,213738.000,4111.59903,N,11156.54809,W,AANN,13,0.93,01482.5,-016.5,,*5A
$GNVTG,000.0,T,348.3,M,000.1,N,000.1,K,A*31
$GNGLL,4111.59903,N,11156.54809,W,213738.000,A,A*58
$PTNLRBA,1,0*56
$PTNLRTP,T,21.34,3.0*2F
$PTNLRXO,1,-270.578*7E
$PERC,GPdbg,1,3,1,0243200,0192400,0251801,0212705,0113800,0172500,0124600*53
$PERC,GPdbg,1,3,2,0223200,0061300,0884400,0772600,0762800,0701901,0873600*50
$PERC,GPdbg,1,3,3,0783900,,,,,,*5A
$PERC,GPdbg,1,10,07FF,11,19,1,2,0,02000,02000,4,1,+015.8,+007.9,02,06,0000*7D
$PERC,GPppf,-05.4,+004.4,0,18,0*4B
$PERC,GPppr,423477,02405,00050,12,0,0*49
$PERC,GPsts,2,0,2,010011111111011111*7B
$GNZDA,213739.000,12,02,2026,,*42
$GNGNS,213739.000,4111.59903,N,11156.54809,W,AANN,13,0.93,01482.5,-016.5,,*5B
$GNVTG,000.0,T,348.3,M,000.1,N,000.2,K,A*32
$GNGLL,4111.59903,N,11156.54809,W,213739.000,A,A*59
$PTNLRBA,1,0*56
$PTNLRTP,T,21.34,3.0*2F
$PTNLRXO,1,-270.594*7C
$PERC,GPdbg,1,3,1,0243200,0192300,0251801,0212705,0113800,0172500,0124600*54
$PERC,GPdbg,1,3,2,0223200,0061300,0884400,0772600,0762800,0701901,0873600*50
$PERC,GPdbg,1,3,3,0783900,,,,,,*5A
$PERC,GPdbg,1,10,07FF,11,19,1,2,0,02000,02000,4,1,+015.8,+007.9,02,06,0000*7D
$PERC,GPppf,-07.0,+005.5,0,18,0*4D
$PERC,GPppr,423478,02405,00050,12,0,0*46
$PERC,GPsts,2,0,2,010011111111011111*7B
$GNZDA,213740.000,12,02,2026,,*4C
$GNGNS,213740.000,4111.59903,N,11156.54809,W,AANN,13,0.93,01482.5,-016.5,,*55
$GNVTG,000.0,T,348.3,M,000.0,N,000.1,K,A*30
$GNGLL,4111.59903,N,11156.54809,W,213740.000,A,A*57
$PTNLRBA,1,0*56
$PTNLRTP,T,21.34,3.0*2F
$PTNLRXO,1,-270.607*75
$PERC,GPdbg,1,3,1,0243200,0192300,0251801,0212705,0113800,0172500,0124600*54
$PERC,GPdbg,1,3,2,0223200,0061300,0884400,0772600,0762800,0701901,0873600*50
$PERC,GPdbg,1,3,3,0783900,,,,,,*5A
$PERC,GPdbg,1,10,07FF,11,19,1,2,0,02000,02000,4,1,+015.8,+008.0,02,06,0000*7B
$PERC,GPppf,-07.4,+007.1,0,18,0*4F
$PERC,GPppr,423479,02405,00050,12,0,0*47
$PERC,GPsts,2,0,2,010011111111011111*7B
$GNZDA,213741.000,12,02,2026,,*4D
$GNGNS,213741.000,4111.59911,N,11156.54796,W,AANN,13,0.93,01482.8,-016.5,,*53
$GNVTG,000.0,T,348.3,M,000.0,N,000.0,K,A*31
$GNGLL,4111.59911,N,11156.54796,W,213741.000,A,A*5C
$PTNLRBA,1,0*56
$PTNLRTP,T,21.34,3.0*2F
$PTNLRXO,1,-270.546*73
$PERC,GPdbg,1,3,1,0243200,0192200,0251801,0212705,0113800,0172500,0124600*55
$PERC,GPdbg,1,3,2,0223300,0061300,0884400,0772600,0762800,0701901,0873600*51
$PERC,GPdbg,1,3,3,0783900,,,,,,*5A
$PERC,GPdbg,1,10,07FF,11,19,1,2,0,02000,02000,4,1,+015.5,+007.6,02,06,0000*7F
$PERC,GPppf,-06.3,+003.4,0,18,0*48
$PERC,GPppr,423480,02405,00050,12,0,0*41
$PERC,GPsts,2,0,2,010011111111011111*7B
$GNZDA,213742.000,12,02,2026,,*4E
$GNGNS,213742.000,4111.59911,N,11156.54796,W,AANN,13,0.93,01482.8,-016.5,,*50
$GNVTG,000.0,T,348.3,M,000.0,N,000.1,K,A*30
$GNGLL,4111.59911,N,11156.54796,W,213742.000,A,A*5F
$PTNLRBA,1,0*56
$PTNLRTP,T,21.34,3.0*2F
$PTNLRXO,1,-270.617*74
$PERC,GPdbg,1,3,1,0243200,0192209,0251801,0212605,0113800,0172500,0124600*5D
$PERC,GPdbg,1,3,2,0223300,0061300,0884400,0772600,0762800,0701901,0873500*52
$PERC,GPdbg,1,3,3,0783900,,,,,,*5A
$PERC,GPdbg,1,10,07FF,11,19,1,2,0,02000,02000,4,1,+015.5,+007.6,02,06,0000*7F
$PERC,GPppf,-04.3,+011.7,0,18,0*4A
$PERC,GPppr,423481,02405,00050,11,0,0*43
$PERC,GPsts,2,0,2,010011111111011111*7B
$GNZDA,213743.000,12,02,2026,,*4F
$GNGNS,213743.000,4111.59911,N,11156.54796,W,AANN,13,0.93,01482.8,-016.5,,*51
$GNVTG,000.0,T,348.3,M,000.0,N,000.1,K,A*30
$GNGLL,4111.59911,N,11156.54796,W,213743.000,A,A*5E
$PTNLRBA,1,0*56
$PTNLRTP,T,21.34,3.0*2F
$PTNLRXO,1,-270.676*73
$PERC,GPdbg,1,3,1,0243200,0192200,0251801,0212605,0113800,0172500,0124600*54
$PERC,GPdbg,1,3,2,0223300,0061300,0884400,0772500,0762800,0701901,0873500*51
$PERC,GPdbg,1,3,3,0783900,,,,,,*5A
$PERC,GPdbg,1,10,07FF,11,19,1,2,0,02000,02000,4,1,+015.5,+007.6,02,06,0000*7F
$PERC,GPppf,+00.1,+000.6,0,18,0*4B
$PERC,GPppr,423482,02405,00050,12,0,0*43
$PERC,GPsts,2,0,2,010011111111011111*7B
$GNZDA,213744.000,12,02,2026,,*48
$GNGNS,213744.000,4111.59911,N,11156.54796,W,AANN,13,0.93,01482.8,-016.5,,*56
$GNVTG,000.0,T,348.3,M,000.0,N,000.1,K,A*30
$GNGLL,4111.59911,N,11156.54796,W,213744.000,A,A*59
$PTNLRBA,1,0*56
$PTNLRTP,T,21.34,3.0*2F
$PTNLRXO,1,-270.699*72
$PERC,GPdbg,1,3,1,0243200,0192100,0251801,0212605,0113800,0172400,0124600*56
$PERC,GPdbg,1,3,2,0223300,0061300,0884400,0772600,0762900,0701901,0873500*53
$PERC,GPdbg,1,3,3,0784000,,,,,,*54
$PERC,GPdbg,1,10,07FF,11,19,1,2,0,02000,02000,4,1,+015.5,+007.6,02,06,0000*7F
$PERC,GPppf,+04.7,-002.4,0,18,0*4F
$PERC,GPppr,423483,02405,00050,12,0,0*42
$PERC,GPsts,2,0,2,010011111111011111*7B
$GNZDA,213745.000,12,02,2026,,*49
$GNGNS,213745.000,4111.59911,N,11156.54796,W,AANN,12,0.97,01482.8,-016.5,,*52
$GNVTG,000.0,T,348.3,M,000.0,N,000.0,K,A*31
$GNGLL,4111.59911,N,11156.54796,W,213745.000,A,A*58
$PTNLRBA,1,0*56
$PTNLRTP,T,21.34,3.0*2F
$PTNLRXO,1,-270.676*73
$PERC,GPdbg,1,2,1,0243200,0251801,0212605,0113800,0172400,0124600,0223300*5C
$PERC,GPdbg,1,2,2,0061308,0884400,0772500,0762900,0701801,0873500,0784000*53
$PERC,GPdbg,1,10,07FF,11,19,1,2,0,02000,02000,4,1,+015.5,+007.6,02,06,0000*7F
$PERC,GPppf,-06.4,-003.7,0,18,0*4A
$PERC,GPppr,423484,02405,00050,10,0,0*47
$PERC,GPsts,2,0,2,010011111111011111*7B
$GNZDA,213746.000,12,02,2026,,*4A
$GNGNS,213746.000,4111.59911,N,11156.54796,W,AANN,12,0.97,01482.8,-016.5,,*51
$GNVTG,000.0,T,348.3,M,000.1,N,000.1,K,A*31
$GNGLL,4111.59911,N,11156.54796,W,213746.000,A,A*5B
$PTNLRBA,1,0*56
$PTNLRTP,T,21.34,3.0*2F
$PTNLRXO,1,-270.598*70
$PERC,GPdbg,1,2,1,0243200,0251801,0212505,0113800,0172400,0124600,0223300*5F
$PERC,GPdbg,1,2,2,0061308,0884400,0772500,0762900,0701801,0873500,0784000*53
$PERC,GPdbg,1,10,07FF,11,19,1,2,0,02000,02000,4,1,+015.5,+007.6,02,06,0000*7F
$PERC,GPppf,-03.2,-005.0,0,18,0*48
$PERC,GPppr,423485,02405,00050,10,0,0*46
$PERC,GPsts,2,0,2,010011111111011111*7B
$GNZDA,213747.000,12,02,2026,,*4B
$GNGNS,213747.000,4111.59911,N,11156.54796,W,AANN,12,0.97,01482.8,-016.5,,*50
$GNVTG,000.0,T,348.3,M,000.0,N,000.0,K,A*31
$GNGLL,4111.59911,N,11156.54796,W,213747.000,A,A*5A
$PTNLRBA,1,0*56
$PTNLRTP,T,21.34,3.0*2F
$PTNLRXO,1,-270.581*78
$PERC,GPdbg,1,2,1,0243200,0251701,0212505,0113800,0172400,0124600,0223300*50
$PERC,GPdbg,1,2,2,0061308,0884300,0772500,0762900,0701801,0873500,0784000*54
$PERC,GPdbg,1,10,07FF,11,19,1,2,0,02000,02000,4,1,+015.5,+007.6,02,06,0000*7F
$PERC,GPppf,-01.0,-003.6,0,18,0*48
$PERC,GPppr,423486,02405,00050,10,0,0*45
$PERC,GPsts,2,0,2,010011111111011111*7B
$GNZDA,213748.000,12,02,2026,,*44
$GNGNS,213748.000,4111.59911,N,11156.54796,W,AANN,12,0.97,01482.8,-016.5,,*5F
$GNVTG,000.0,T,348.3,M,000.0,N,000.0,K,A*31
$GNGLL,4111.59911,N,11156.54796,W,213748.000,A,A*55
$PTNLRBA,1,0*56
$PTNLRTP,T,21.34,3.0*2F
$PTNLRXO,1,-270.572*74
$PERC,GPdbg,1,2,1,0243200,0251701,0212505,0113800,0172400,0124600,0223300*50
$PERC,GPdbg,1,2,2,0061308,0884300,0772500,0762900,0701801,0873500,0784000*54
$PERC,GPdbg,1,10,07FF,11,19,1,2,0,02000,02000,4,1,+015.5,+007.6,02,06,0000*7F
$PERC,GPppf,+00.4,-006.5,0,18,0*4D
$PERC,GPppr,423487,02405,00050,10,0,0*44
$PERC,GPsts,2,0,2,010011111111011111*7B
$GNZDA,213749.000,12,02,2026,,*45
$GNGNS,213749.000,4111.59911,N,11156.54796,W,AANN,12,0.97,01482.8,-016.5,,*5E
$GNVTG,000.0,T,348.3,M,000.0,N,000.1,K,A*30
$GNGLL,4111.59911,N,11156.54796,W,213749.000,A,A*54
$PTNLRBA,1,0*56
$PTNLRTP,T,21.34,3.0*2F
$PTNLRXO,1,-270.585*7C
$PERC,GPdbg,1,2,1,0243200,0251701,0212505,0113800,0172400,0124600,0223300*50
$PERC,GPdbg,1,2,2,0061308,0884400,0772500,0762900,0701801,0873500,0784000*53
$PERC,GPdbg,1,10,07FF,11,19,1,2,0,02000,02000,4,1,+015.5,+007.6,02,06,0000*7F
$PERC,GPppf,+00.3,-004.3,0,18,0*4E
$PERC,GPppr,423488,02405,00050,10,0,0*4B
$PERC,GPsts,2,0,2,010011111111011111*7B
$GNZDA,213750.000,12,02,2026,,*4D
$GNGNS,213750.000,4111.59911,N,11156.54796,W,AANN,12,0.97,01482.8,-016.5,,*56
$GNVTG,000.0,T,348.3,M,000.0,N,000.0,K,A*31
$GNGLL,4111.59911,N,11156.54796,W,213750.000,A,A*5C
$PTNLRBA,1,0*56
$PTNLRTP,T,21.34,3.0*2F
$PTNLRXO,1,-270.607*75
$PERC,GPdbg,1,2,1,0243200,0251701,0212505,0113800,0172400,0124600,0223400*57
$PERC,GPdbg,1,2,2,0061308,0884400,0772500,0763000,0701801,0873500,0784000*5B
$PERC,GPdbg,1,10,07FF,11,19,1,2,0,02000,02000,4,1,+015.5,+007.7,02,06,0000*7E
$PERC,GPppf,-00.7,-001.0,0,18,0*4A
$PERC,GPppr,423489,02405,00050,10,0,0*4A
$PERC,GPsts,2,0,2,010011111111011111*7B
$GNZDA,213751.000,12,02,2026,,*4C
$GNGNS,213751.000,4111.59911,N,11156.54796,W,AANN,12,0.97,01482.8,-016.5,,*57
$GNVTG,000.0,T,348.3,M,000.0,N,000.1,K,A*30
$GNGLL,4111.59911,N,11156.54796,W,213751.000,A,A*5D
$PTNLRBA,1,0*56
$PTNLRTP,T,21.34,3.0*2F
$PTNLRXO,1,-270.630*71
$PERC,GPdbg,1,2,1,0243200,0251601,0212405,0113800,0172400,0124600,0223400*57
$PERC,GPdbg,1,2,2,0061408,0884300,0772500,0762900,0701801,0873500,0784000*53
$PERC,GPdbg,1,10,07FF,11,19,1,2,0,02000,02000,4,1,+015.5,+007.7,02,06,0000*7E
$PERC,GPppf,-01.9,+021.5,0,18,0*44
$PERC,GPppr,423490,02405,00050,10,0,0*42
$PERC,GPsts,2,0,2,010011111111011111*7B
$GNZDA,213752.000,12,02,2026,,*4F
$GNGNS,213752.000,4111.59911,N,11156.54796,W,AANN,12,0.97,01482.8,-016.5,,*54
$GNVTG,000.0,T,348.3,M,000.0,N,000.1,K,A*30
$GNGLL,4111.59911,N,11156.54796,W,213752.000,A,A*5E
$PTNLRBA,1,0*56
$PTNLRTP,T,21.34,3.0*2F
$PTNLRXO,1,-270.614*77
$PERC,GPdbg,1,2,1,0243100,0251601,0212405,0113800,0172400,0124600,0223400*54
$PERC,GPdbg,1,2,2,0061400,0884300,0772500,0762900,0701801,0873500,0784000*5B
$PERC,GPdbg,1,10,07FF,11,19,1,2,0,02000,02000,4,1,+015.6,+007.7,02,06,0000*7D
$PERC,GPppf,+01.6,-006.5,0,18,0*4E
$PERC,GPppr,423491,02405,00050,11,0,0*42
$PERC,GPsts,2,0,2,010011111111011111*7B
$GNZDA,213753.000,12,02,2026,,*4E
$GNGNS,213753.000,4111.59911,N,11156.54796,W,AANN,12,0.97,01482.8,-016.5,,*55
$GNVTG,000.0,T,348.3,M,000.0,N,000.0,K,A*31
$GNGLL,4111.59911,N,11156.54796,W,213753.000,A,A*5F
$PTNLRBA,1,0*56
$PTNLRTP,T,21.34,3.0*2F
$PTNLRXO,1,-270.702*71
$PERC,GPdbg,1,2,1,0243100,0251601,0212405,0113800,0172300,0124600,0223400*53
$PERC,GPdbg,1,2,2,0061400,0884300,0772500,0762900,0701801,0873500,0784000*5B
$PERC,GPdbg,1,10,07FF,11,19,1,2,0,02000,02000,4,1,+015.6,+007.7,02,06,0000*7D
$PERC,GPppf,+03.7,-008.7,0,18,0*41
$PERC,GPppr,423492,02405,00050,11,0,0*41
$PERC,GPsts,2,0,2,010011111111011111*7B
$GNZDA,213754.000,12,02,2026,,*49
$GNGNS,213754.000,4111.59911,N,11156.54796,W,AANN,12,0.97,01482.8,-016.5,,*52
$GNVTG,000.0,T,348.3,M,000.0,N,000.0,K,A*31
$GNGLL,4111.59911,N,11156.54796,W,213754.000,A,A*58
$PTNLRBA,1,0*56
$PTNLRTP,T,21.34,3.0*2F
$PTNLRXO,1,-270.715*77
$PERC,GPdbg,1,2,1,0243100,0251501,0212305,0113800,0172300,0124600,0223400*57
$PERC,GPdbg,1,2,2,0061600,0884300,0772500,0762900,0701801,0873500,0784000*59
$PERC,GPdbg,1,10,07FF,11,19,1,2,0,02000,02000,4,1,+015.6,+007.7,02,06,0000*7D
$PERC,GPppf,+03.8,-003.2,0,18,0*40
$PERC,GPppr,423493,02405,00050,11,0,0*40
$PERC,GPsts,2,0,2,010011111111011111*7B
$GNZDA,213755.000,12,02,2026,,*48
$GNGNS,213755.000,4111.59911,N,11156.54796,W,AANN,12,0.97,01482.8,-016.5,,*53
$GNVTG,000.0,T,348.3,M,000.1,N,000.1,K,A*31
$GNGLL,4111.59911,N,11156.54796,W,213755.000,A,A*59
$PTNLRBA,1,0*56
$PTNLRTP,T,21.34,3.0*2F
$PTNLRXO,1,-270.673*76
$PERC,GPdbg,1,2,1,0243100,0251501,0212305,0113800,0172300,0124600,0223400*57
$PERC,GPdbg,1,2,2,0061700,0884400,0772500,0762900,0701801,0873500,0784000*5F
$PERC,GPdbg,1,10,07FF,11,19,1,2,0,02000,02000,4,1,+015.6,+007.7,02,06,0000*7D
$PERC,GPppf,+03.3,+020.9,0,18,0*47
$PERC,GPppr,423494,02405,00050,11,0,0*47
$PERC,GPsts,2,0,2,010011111111011111*7B
$GNZDA,213756.000,12,02,2026,,*4B
$GNGNS,213756.000,4111.59911,N,11156.54796,W,AANN,12,0.97,01482.8,-016.5,,*50
$GNVTG,000.0,T,348.3,M,000.0,N,000.0,K,A*31
$GNGLL,4111.59911,N,11156.54796,W,213756.000,A,A*5A
$PTNLRBA,1,0*56
$PTNLRTP,T,21.33,3.0*28
$PTNLRXO,1,-270.643*75
$PERC,GPdbg,1,2,1,0243100,0251501,0212305,0113800,0172300,0124600,0223400*57
$PERC,GPdbg,1,2,2,0061700,0884400,0772500,0762900,0701801,0873500,0784000*5F
$PERC,GPdbg,1,10,07FF,11,19,1,2,0,02000,02000,4,1,+015.6,+007.7,02,06,0000*7D
$PERC,GPppf,+07.3,+012.4,0,18,0*4F
$PERC,GPppr,423495,02405,00050,11,0,0*46
$PERC,GPsts,2,0,2,010011111111011111*7B
$GNZDA,213757.000,12,02,2026,,*4A
$GNGNS,213757.000,4111.59911,N,11156.54796,W,AANN,12,0.97,01482.8,-016.5,,*51
$GNVTG,000.0,T,348.3,M,000.1,N,000.1,K,A*31
$GNGLL,4111.59911,N,11156.54796,W,213757.000,A,A*5B
$PTNLRBA,1,0*56
$PTNLRTP,T,21.33,3.0*28
$PTNLRXO,1,-270.516*76
$PERC,GPdbg,1,2,1,0243100,0251401,0212205,0113800,0172300,0124600,0223500*56
$PERC,GPdbg,1,2,2,0061800,0884400,0772500,0762900,0701801,0873500,0784000*50
$PERC,GPdbg,1,10,07FF,11,19,1,2,0,02000,02000,4,1,+015.6,+007.7,02,06,0000*7D
$PERC,GPppf,-01.2,-021.3,0,18,0*4F
$PERC,GPppr,423496,02405,00050,11,0,0*45
$PERC,GPsts,2,0,2,010011111111011111*7B
$GNZDA,213758.000,12,02,2026,,*45
$GNGNS,213758.000,4111.59911,N,11156.54796,W,AANN,12,0.97,01482.8,-016.5,,*5E
$GNVTG,000.0,T,348.3,M,000.0,N,000.1,K,A*30
$GNGLL,4111.59911,N,11156.54796,W,213758.000,A,A*54
$PTNLRBA,1,0*56
$PTNLRTP,T,21.33,3.0*28
$PTNLRXO,1,-270.630*71
$PERC,GPdbg,1,2,1,0243000,0251401,0212205,0113800,0172300,0124600,0223500*57
$PERC,GPdbg,1,2,2,0061900,0884400,0772500,0762900,0701801,0873500,0784000*51
$PERC,GPdbg,1,10,07FF,11,19,1,2,0,02000,02000,4,1,+015.6,+007.7,02,06,0000*7D
$PERC,GPppf,+00.9,-020.5,0,18,0*44
$PERC,GPppr,423497,02405,00050,11,0,0*44
$PERC,GPsts,2,0,2,010011111111011111*7B
$GNZDA,213759.000,12,02,2026,,*44
$GNGNS,213759.000,4111.59911,N,11156.54796,W,AANN,12,0.97,01482.8,-016.5,,*5F
$GNVTG,000.0,T,348.3,M,000.0,N,000.1,K,A*30
$GNGLL,4111.59911,N,11156.54796,W,213759.000,A,A*55
$PTNLRBA,1,0*56
$PTNLRTP,T,21.33,3.0*28
$PTNLRXO,1,-270.647*71
$PERC,GPdbg,1,2,1,0243000,0251401,0212105,0113800,0172200,0124600,0223500*55
$PERC,GPdbg,1,2,2,0061900,0884400,0772500,0762900,0701801,0873500,0784000*51
$PERC,GPdbg,1,10,07FF,11,19,1,2,0,02000,02000,4,1,+015.6,+007.7,02,06,0000*7D
$PERC,GPppf,-01.5,+004.8,0,18,0*42
$PERC,GPppr,423498,02405,00050,11,0,0*4B
$PERC,GPsts,2,0,2,010011111111011111*7B
$GNZDA,213800.000,12,02,2026,,*47
$GNGNS,213800.000,4111.59911,N,11156.54796,W,AANN,12,0.97,01482.8,-016.5,,*5C
$GNVTG,000.0,T,348.3,M,000.0,N,000.0,K,A*31
$GNGLL,4111.59911,N,11156.54796,W,213800.000,A,A*56
$PTNLRBA,1,0*56
$PTNLRTP,T,21.33,3.0*28
$PTNLRXO,1,-270.643*75
$PERC,GPdbg,1,2,1,0243000,0251401,0212105,0113800,0172200,0124600,0223500*55
$PERC,GPdbg,1,2,2,0061900,0884400,0772500,0762900,0701801,0873500,0784000*51
$PERC,GPdbg,1,10,07FF,11,19,1,2,0,02000,02000,4,1,+015.6,+007.7,02,06,0000*7D
$PERC,GPppf,-02.8,+007.4,0,18,0*43
$PERC,GPppr,423499,02405,00050,11,0,0*4A
$PERC,GPsts,2,0,2,010011111111011111*7B
$GNZDA,213801.000,12,02,2026,,*46
$GNGNS,213801.000,4111.59911,N,11156.54796,W,AANN,12,0.97,01482.8,-016.5,,*5D
$GNVTG,000.0,T,348.3,M,000.1,N,000.2,K,A*32
$GNGLL,4111.59911,N,11156.54796,W,213801.000,A,A*57
$PTNLRBA,1,0*56
$PTNLRTP,T,21.33,3.0*28
$PTNLRXO,1,-270.562*75
$PERC,GPdbg,1,2,1,0243000,0251401,0212105,0113800,0172200,0124600,0223500*55
$PERC,GPdbg,1,2,2,0061900,0884400,0772500,0762900,0701801,0873500,0784000*51
$PERC,GPdbg,1,10,07FF,11,19,1,2,0,02000,02000,4,1,+015.6,+007.7,02,06,0000*7D
$PERC,GPppf,-02.6,-018.3,0,18,0*42
$PERC,GPppr,423500,02405,00050,11,0,0*4B
$PERC,GPsts,2,0,2,010011111111011111*7B
$GNZDA,213802.000,12,02,2026,,*45
$GNGNS,213802.000,4111.59911,N,11156.54796,W,AANN,12,0.97,01482.8,-016.5,,*5E
$GNVTG,000.0,T,348.3,M,000.0,N,000.0,K,A*31
$GNGLL,4111.59911,N,11156.54796,W,213802.000,A,A*54
$PTNLRBA,1,0*56
$PTNLRTP,T,21.33,3.0*28
$PTNLRXO,1,-270.676*73
$PERC,GPdbg,1,2,1,0243000,0251401,0212005,0113800,0172100,0124600,0223500*57
$PERC,GPdbg,1,2,2,0062000,0884400,0772500,0762900,0701801,0873500,0784000*5B
$PERC,GPdbg,1,10,07FF,11,19,1,2,0,02000,02000,4,1,+015.6,+007.7,02,06,0000*7D
$PERC,GPppf,-06.3,-012.3,0,18,0*49
$PERC,GPppr,423501,02405,00050,11,0,0*4A
$PERC,GPsts,2,0,2,010011111111011111*7B
$GNZDA,213803.000,12,02,2026,,*44
$GNGNS,213803.000,4111.59911,N,11156.54796,W,AANN,12,0.97,01482.8,-016.5,,*5F
$GNVTG,000.0,T,348.3,M,000.0,N,000.1,K,A*30
$GNGLL,4111.59911,N,11156.54796,W,213803.000,A,A*55
$PTNLRBA,1,0*56
$PTNLRTP,T,21.33,3.0*28
$PTNLRXO,1,-270.796*7C
$PERC,GPdbg,1,2,1,0243000,0251401,0211905,0113800,0172100,0124600,0223500*5D
$PERC,GPdbg,1,2,2,0062000,0884400,0772500,0762900,0701801,0873400,0784000*5A
$PERC,GPdbg,1,10,07FF,11,19,1,2,0,02000,02000,4,1,+015.6,+007.7,02,06,0000*7D
$PERC,GPppf,+02.5,+022.4,0,18,0*4F
$PERC,GPppr,423502,02405,00050,11,0,0*49
$PERC,GPsts,2,0,2,010011111111011111*7B
$GNZDA,213804.000,12,02,2026,,*43
$GNGNS,213804.000,4111.59911,N,11156.54796,W,AANN,12,0.97,01482.8,-016.5,,*58
$GNVTG,000.0,T,348.3,M,000.0,N,000.0,K,A*31
$GNGLL,4111.59911,N,11156.54796,W,213804.000,A,A*52
$PTNLRBA,1,0*56
$PTNLRTP,T,21.33,3.0*28
$PTNLRXO,1,-270.666*72
$PERC,GPdbg,1,2,1,0242900,0251301,0211905,0113800,0172100,0124600,0223500*52
$PERC,GPdbg,1,2,2,0062000,0884300,0772500,0762900,0701801,0873400,0784000*5D
$PERC,GPdbg,1,10,07FF,11,19,1,2,0,02000,02000,4,1,+015.6,+007.7,02,06,0000*7D
$PERC,GPppf,+01.0,+017.0,0,18,0*4B
$PERC,GPppr,423503,02405,00050,11,0,0*48
$PERC,GPsts,2,0,2,010011111111011111*7B
$GNZDA,213805.000,12,02,2026,,*42
$GNGNS,213805.000,4111.59911,N,11156.54796,W,AANN,12,0.97,01482.8,-016.5,,*59
$GNVTG,000.0,T,348.3,M,000.0,N,000.1,K,A*30
$GNGLL,4111.59911,N,11156.54796,W,213805.000,A,A*53
$PTNLRBA,1,0*56
$PTNLRTP,T,21.33,3.0*28
$PTNLRXO,1,-270.650*77
$PERC,GPdbg,1,2,1,0242900,0251301,0211805,0113800,0172000,0124600,0223500*52
$PERC,GPdbg,1,2,2,0062000,0884300,0772500,0762900,0701801,0873400,0784000*5D
$PERC,GPdbg,1,10,07FF,11,19,1,2,0,02000,02000,4,1,+015.6,+007.8,02,06,0000*72
$PERC,GPppf,+03.2,+010.7,0,18,0*4B
$PERC,GPppr,423504,02405,00050,11,0,0*4F
$PERC,GPsts,2,0,2,010011111111011111*7B
$GNZDA,213806.000,12,02,2026,,*41
$GNGNS,213806.000,4111.59911,N,11156.54796,W,AANN,12,0.97,01482.8,-016.5,,*5A
$GNVTG,000.0,T,348.3,M,000.1,N,000.1,K,A*31
$GNGLL,4111.59911,N,11156.54796,W,213806.000,A,A*50
$PTNLRBA,1,0*56
$PTNLRTP,T,21.33,3.0*28
$PTNLRXO,1,-270.627*77
$PERC,GPdbg,1,2,1,0242900,0251301,0211805,0113800,0172000,0124600,0223500*52
$PERC,GPdbg,1,2,2,0062000,0884300,0772500,0762900,0701801,0873400,0784000*5D
$PERC,GPdbg,1,10,07FF,11,19,1,2,0,02000,02000,4,1,+015.6,+007.8,02,06,0000*72
$PERC,GPppf,-07.5,-019.6,0,18,0*40
$PERC,GPppr,423505,02405,00050,11,0,0*4E
$PERC,GPsts,2,0,2,010011111111011111*7B
$GNZDA,213807.000,12,02,2026,,*40
$GNGNS,213807.000,4111.59911,N,11156.54796,W,AANN,12,0.97,01482.8,-016.5,,*5B
$GNVTG,000.0,T,348.3,M,000.1,N,000.2,K,A*32
$GNGLL,4111.59911,N,11156.54796,W,213807.000,A,A*51
$PTNLRBA,1,0*56
$PTNLRTP,T,21.33,3.0*28
$PTNLRXO,1,-270.549*7C
$PERC,GPdbg,1,2,1,0243000,0251301,0211605,0113800,0172000,0124600,0223500*54
$PERC,GPdbg,1,2,2,0062100,0884300,0772500,0762900,0701801,0873400,0784000*5C
$PERC,GPdbg,1,10,07FF,11,19,1,2,0,02000,02000,4,1,+015.7,+007.8,02,06,0000*73
$PERC,GPppf,-07.3,+007.5,0,18,0*4C
$PERC,GPppr,423506,02405,00050,11,0,0*4D
$PERC,GPsts,2,0,2,010011111111011111*7B
$GNZDA,213808.000,12,02,2026,,*4F
$GNGNS,213808.000,4111.59911,N,11156.54796,W,AANN,12,0.97,01482.8,-016.5,,*54
$GNVTG,000.0,T,348.3,M,000.0,N,000.1,K,A*30
$GNGLL,4111.59911,N,11156.54796,W,213808.000,A,A*5E
$PTNLRBA,1,0*56
$PTNLRTP,T,21.33,3.0*28
$PTNLRXO,1,-270.702*71
$PERC,GPdbg,1,2,1,0242900,0251301,0211405,0113800,0172000,0124600,0223500*5E
$PERC,GPdbg,1,2,2,0062100,0884300,0772500,0762800,0701801,0873400,0784000*5D
$PERC,GPdbg,1,10,07FF,11,19,1,2,0,02000,02000,4,1,+015.7,+007.8,02,06,0000*73
$PERC,GPppf,-05.4,+004.8,0,18,0*47
$PERC,GPppr,423507,02405,00050,11,0,0*4C
$PERC,GPsts,2,0,2,010011111111011111*7B
$GNZDA,213809.000,12,02,2026,,*4E
$GNGNS,213809.000,4111.59911,N,11156.54796,W,AANN,12,0.97,01482.8,-016.5,,*55
$GNVTG,000.0,T,348.3,M,000.1,N,000.2,K,A*32
$GNGLL,4111.59911,N,11156.54796,W,213809.000,A,A*5F
$PTNLRBA,1,0*56
$PTNLRTP,T,21.33,3.0*28
$PTNLRXO,1,-270.676*73
$PERC,GPdbg,1,2,1,0242900,0251301,0211405,0113800,0172000,0124600,0223500*5E
$PERC,GPdbg,1,2,2,0062100,0884300,0772500,0762800,0701801,0873400,0784000*5D
$PERC,GPdbg,1,10,07FF,11,19,1,2,0,02000,02000,4,1,+015.7,+007.8,02,06,0000*73
$PERC,GPppf,-02.4,+000.5,0,18,0*49
$PERC,GPppr,423508,02405,00050,11,0,0*43
$PERC,GPsts,2,0,2,010011111111011111*7B
$GNZDA,213810.000,12,02,2026,,*46
$GNGNS,213810.000,4111.59911,N,11156.54796,W,AANN,13,0.94,01482.8,-016.5,,*5F
$GNVTG,000.0,T,348.3,M,000.0,N,000.0,K,A*31
$GNGLL,4111.59911,N,11156.54796,W,213810.000,A,A*57
$PTNLRBA,1,0*56
$PTNLRTP,T,21.33,3.0*28
$PTNLRXO,1,-270.666*72
$PERC,GPdbg,1,3,1,0242900,0192300,0251301,0211305,0113800,0172000,0124600*57
$PERC,GPdbg,1,3,2,0223500,0062100,0884300,0772600,0762800,0701801,0873400*52
$PERC,GPdbg,1,3,3,0784000,,,,,,*54
$PERC,GPdbg,1,10,07FF,11,19,1,2,0,02000,02000,4,1,+015.7,+007.8,02,06,0000*73
$PERC,GPppf,+00.6,-028.5,0,18,0*43
$PERC,GPppr,423509,02405,00050,12,0,0*41
$PERC,GPsts,2,0,2,010011111111011111*7B
$GNZDA,213811.000,12,02,2026,,*47
$GNGNS,213811.000,4111.59911,N,11156.54796,W,AANN,13,0.94,01482.8,-016.5,,*5E
$GNVTG,000.0,T,348.3,M,000.0,N,000.1,K,A*30
$GNGLL,4111.59911,N,11156.54796,W,213811.000,A,A*56
$PTNLRBA,1,0*56
$PTNLRTP,T,21.33,3.0*28
$PTNLRXO,1,-270.536*74
$PERC,GPdbg,1,3,1,0242900,0192200,0251201,0211305,0113800,0172000,0124600*57
$PERC,GPdbg,1,3,2,0223600,0062100,0884300,0772600,0762800,0701801,0873400*51
$PERC,GPdbg,1,3,3,0784000,,,,,,*54
$PERC,GPdbg,1,10,07FF,11,19,1,2,0,02000,02000,4,1,+015.7,+007.8,02,06,0000*73
$PERC,GPppf,-02.6,+003.5,0,18,0*48
$PERC,GPppr,423510,02405,00050,12,0,0*49
$PERC,GPsts,2,0,2,010011111111011111*7B
$GNZDA,213812.000,12,02,2026,,*44
$GNGNS,213812.000,4111.59911,N,11156.54796,W,AANN,13,0.94,01482.8,-016.5,,*5D
$GNVTG,000.0,T,348.3,M,000.0,N,000.1,K,A*30
$GNGLL,4111.59911,N,11156.54796,W,213812.000,A,A*55
$PTNLRBA,1,0*56
$PTNLRTP,T,21.33,3.0*28
$PTNLRXO,1,-270.513*73
$PERC,GPdbg,1,3,1,0242900,0192200,0251201,0211305,0113800,0172000,0124600*57
$PERC,GPdbg,1,3,2,0223600,0062100,0884300,0772600,0762800,0701801,0873400*51
$PERC,GPdbg,1,3,3,0784000,,,,,,*54
$PERC,GPdbg,1,10,07FF,11,19,1,2,0,02000,02000,4,1,+015.7,+007.8,02,06,0000*73
$PERC,GPppf,-05.0,+000.3,0,18,0*4C
$PERC,GPppr,423511,02405,00050,12,0,0*48
$PERC,GPsts,2,0,2,010011111111011111*7B
$GNZDA,213813.000,12,02,2026,,*45
$GNGNS,213813.000,4111.59911,N,11156.54796,W,AANN,12,0.97,01482.8,-016.5,,*5E
$GNVTG,000.0,T,348.3,M,000.0,N,000.0,K,A*31
$GNGLL,4111.59911,N,11156.54796,W,213813.000,A,A*54
$PTNLRBA,1,0*56
$PTNLRTP,T,21.33,3.0*28
$PTNLRXO,1,-270.643*75
$PERC,GPdbg,1,2,1,0242900,0251301,0211305,0113800,0172000,0124600,0223600*5A
$PERC,GPdbg,1,2,2,0062100,0884300,0772600,0762800,0701801,0873400,0784000*5E
$PERC,GPdbg,1,10,07FF,11,19,1,2,0,02000,02000,4,1,+015.7,+007.8,02,06,0000*73
$PERC,GPppf,-07.4,+005.9,0,18,0*45
$PERC,GPppr,423512,02405,00050,11,0,0*48
$PERC,GPsts,2,0,2,010011111111011111*7B
$PERC,GPver,GRU 04 02,NCD 901 78/1,R1C,E640019302.1949*0D
$PERC,GPctr,R,,,1,,*39
$PERC,GPavp,4111.5950,N,11156.5597,W,001492.2,M*2E
$GNZDA,213814.000,12,02,2026,,*42
$GNGNS,213814.000,4111.59911,N,11156.54796,W,AANN,12,0.97,01482.8,-016.5,,*59
$GNVTG,000.0,T,348.3,M,000.0,N,000.0,K,A*31
$GNGLL,4111.59911,N,11156.54796,W,213814.000,A,A*53
$PTNLRBA,1,0*56
$PTNLRTP,T,21.33,3.0*28
$PTNLRXO,1,-270.624*74
$PERC,GPdbg,1,2,1,0242900,0251201,0211305,0113800,0172000,0124600,0223500*58
$PERC,GPdbg,1,2,2,0062100,0884300,0772600,0762800,0701801,0873400,0784000*5E
$PERC,GPdbg,1,10,07FF,11,19,1,2,0,02000,02000,4,1,+015.7,+007.8,02,06,0000*73
$PERC,GPppf,+06.8,+001.3,0,18,0*40
$PERC,GPppr,423513,02405,00050,11,0,0*49
$PERC,GPsts,2,0,2,010011111111011111*7B
$GNZDA,213815.000,12,02,2026,,*43
$GPGGA,213815.000,4111.59911,N,11156.54796,W,1,12,0.97,01482.8,M,-016.5,M,,*6C
$GNGNS,213815.000,4111.59911,N,11156.54796,W,AANN,12,0.97,01482.8,-016.5,,*58
$GNVTG,000.0,T,348.3,M,000.1,N,000.2,K,A*32
$GNGLL,4111.59911,N,11156.54796,W,213815.000,A,A*52
$GPGSA,A,3,24,11,17,12,22,06,,,,,,,1.79,0.97,1.50*02
$GNGSA,A,3,88,77,76,87,78,,,,,,,,1.79,0.97,1.50*18
$PTNLRBA,1,0*56
$PTNLRTP,T,21.33,3.0*28
$PTNLRXO,1,-270.669*7D
$PERC,GPdbg,1,2,1,0242900,0251201,0211405,0113800,0172100,0124600,0223600*5D
$PERC,GPdbg,1,2,2,0062100,0884300,0772600,0762700,0701801,0873400,0784000*51
$PERC,GPdbg,1,10,07FF,11,19,1,2,0,02000,02000,4,1,+015.7,+007.8,02,06,0000*73
$PERC,GPppf,+06.0,+004.1,0,18,0*4F
$PERC,GPppr,423514,02405,00050,11,0,0*4E
$PERC,GPsts,2,0,2,010011111111011111*7B
$GNZDA,213816.000,12,02,2026,,*40
$GNGNS,213816.000,4111.59911,N,11156.54796,W,AANN,12,0.97,01482.8,-016.5,,*5B
$GNVTG,000.0,T,348.3,M,000.1,N,000.1,K,A*31
$GNGLL,4111.59911,N,11156.54796,W,213816.000,A,A*51
$GPGSV,2,1,07,24,35,234,29,21,09,155,14,11,62,190,38,17,19,071,21*71
$GPGSV,2,2,07,12,56,313,46,22,18,123,36,06,63,061,21,,,,*46
$GLGSV,2,1,06,88,50,239,43,77,69,156,26,76,20,148,27,70,02,006,18*62
$GLGSV,2,2,06,87,56,025,33,78,46,324,40,,,,,,,,*64
$PTNLRBA,1,0*56
$PTNLRTP,T,21.33,3.0*28
$PTNLRXO,1,-270.617*74
$PERC,GPppf,+06.1,+001.9,0,18,0*43
$PERC,GPppr,423515,02405,00050,11,0,0*4F
$PERC,GPsts,2,0,2,010011111111011111*7B
$PERC,FWsts,010100,,,0,0,0*7D
$PERC,GPreh,00:00:00 00/00/0000,8*58
$GNZDA,213817.000,12,02,2026,,*41
$GNGNS,213817.000,4111.59911,N,11156.54796,W,AANN,12,0.97,01482.8,-016.5,,*5A
$GNVTG,000.0,T,348.3,M,000.1,N,000.1,K,A*31
$GNGLL,4111.59911,N,11156.54796,W,213817.000,A,A*50
$PTNLRBA,1,0*56
$PTNLRTP,T,21.33,3.0*28
$PTNLRXO,1,-270.679*7C
$PERC,GPdbg,1,2,1,0242900,0211405,0113800,0172100,0124500,0223600,0062100*5E
$PERC,GPdbg,1,2,2,0884300,0772600,0762700,0701801,0873300,0784000,*63
$PERC,GPdbg,1,10,07FF,11,19,1,2,0,02000,02000,4,1,+015.7,+007.8,02,06,0000*73
$PERC,GPppf,+06.7,+004.7,0,18,0*4E
$PERC,GPppr,423516,02405,00050,11,0,0*4C
$PERC,GPsts,2,0,2,010011111111011111*7B
$GNZDA,213818.000,12,02,2026,,*4E
$GNGNS,213818.000,4111.59911,N,11156.54796,W,AANN,12,0.97,01482.8,-016.5,,*55
$GNVTG,000.0,T,348.3,M,000.1,N,000.1,K,A*31
$GNGLL,4111.59911,N,11156.54796,W,213818.000,A,A*5F
$PTNLRBA,1,0*56
$PTNLRTP,T,21.33,3.0*28
$PTNLRXO,1,-270.744*73
$PERC,GPdbg,1,2,1,0242900,0211405,0113800,0172100,0124500,0223600,0062100*5E
$PERC,GPdbg,1,2,2,0884300,0772600,0762700,0701801,0873300,0784000,*63
$PERC,GPdbg,1,10,07FF,11,19,1,2,0,02000,02000,4,1,+015.7,+007.8,02,06,0000*73
$PERC,GPppf,-07.1,-001.4,0,18,0*4F
$PERC,GPppr,423517,02405,00050,11,0,0*4D
$PERC,GPsts,2,0,2,010011111111011111*7B
$GNZDA,213819.000,12,02,2026,,*4F
$GNGNS,213819.000,4111.59911,N,11156.54796,W,AANN,12,0.97,01482.8,-016.5,,*54
$GNVTG,000.0,T,348.3,M,000.1,N,000.1,K,A*31
$GNGLL,4111.59911,N,11156.54796,W,213819.000,A,A*5E
$PTNLRBA,1,0*56
$PTNLRTP,T,21.33,3.0*28
$PTNLRXO,1,-270.712*70
$PERC,GPdbg,1,2,1,0242900,0211405,0113800,0172100,0124500,0223600,0062100*5E
$PERC,GPdbg,1,2,2,0884300,0772700,0762700,0701801,0873300,0784000,*62
$PERC,GPdbg,1,10,07FF,11,19,1,2,0,02000,02000,4,1,+015.7,+007.8,02,06,0000*73
$PERC,GPppf,-05.8,-003.0,0,18,0*42
$PERC,GPppr,423518,02405,00050,11,0,0*42
$PERC,GPsts,2,0,2,010011111111011111*7B
$GNZDA,213820.000,12,02,2026,,*45
$GNGNS,213820.000,4111.59911,N,11156.54796,W,AANN,12,0.97,01482.8,-016.5,,*5E
$GNVTG,000.0,T,348.3,M,000.0,N,000.1,K,A*30
$GNGLL,4111.59911,N,11156.54796,W,213820.000,A,A*54
$PTNLRBA,1,0*56
$PTNLRTP,T,21.33,3.0*28
$PTNLRXO,1,-270.621*71
$PERC,GPdbg,1,2,1,0242800,0211405,0113800,0172100,0124500,0223600,0062100*5F
$PERC,GPdbg,1,2,2,0884300,0772700,0762700,0701801,0873300,0784000,*62
$PERC,GPdbg,1,10,07FF,11,19,1,2,0,02000,02000,4,1,+015.7,+007.9,02,06,0000*72
$PERC,GPppf,-05.2,-003.5,0,18,0*4D
$PERC,GPppr,423519,02405,00050,11,0,0*43
$PERC,GPsts,2,0,2,010011111111011111*7B
$GNZDA,213821.000,12,02,2026,,*44
$GNGNS,213821.000,4111.59931,N,11156.54844,W,AANN,12,0.97,01483.7,-016.5,,*53
$GNVTG,000.0,T,348.3,M,000.0,N,000.1,K,A*30
$GNGLL,4111.59931,N,11156.54844,W,213821.000,A,A*57
$PTNLRBA,1,0*56
$PTNLRTP,T,21.33,3.0*28
$PTNLRXO,1,-270.578*7E
$PERC,GPdbg,1,2,1,0242800,0211505,0113800,0172200,0124500,0223600,0062100*5D
$PERC,GPdbg,1,2,2,0884300,0772700,0762700,0701801,0873200,0784000,*63
$PERC,GPdbg,1,10,07FF,11,19,1,2,0,02000,02000,4,1,+015.4,+007.6,02,06,0000*7E
$PERC,GPppf,-05.4,-001.8,0,18,0*44
$PERC,GPppr,423520,02405,00050,11,0,0*49
$PERC,GPsts,2,0,2,010011111111011111*7B
$GNZDA,213822.000,12,02,2026,,*47
$GNGNS,213822.000,4111.59931,N,11156.54844,W,AANN,12,0.97,01483.7,-016.5,,*50
$GNVTG,000.0,T,348.3,M,000.1,N,000.1,K,A*31
$GNGLL,4111.59931,N,11156.54844,W,213822.000,A,A*54
$PTNLRBA,1,0*56
$PTNLRTP,T,21.33,3.0*28
$PTNLRXO,1,-270.581*78
$PERC,GPdbg,1,2,1,0242800,0211505,0113800,0172200,0124500,0223600,0062100*5D
$PERC,GPdbg,1,2,2,0884300,0772700,0762700,0701801,0873200,0784000,*63
$PERC,GPdbg,1,10,07FF,11,19,1,2,0,02000,02000,4,1,+015.4,+007.6,02,06,0000*7E
$PERC,GPppf,-05.9,+022.7,0,18,0*41
$PERC,GPppr,423521,02405,00050,11,0,0*48
$PERC,GPsts,2,0,2,010011111111011111*7B
