$GNZDA,213712.000,12,02,2026,,*4B
$GNGNS,213712.000,4111.59903,N,11156.54809,W,AANN,13,0.93,01482.5,-016.5,,*52
{"class":"TPV","mode":3,"time":"2026-02-12T21:37:12.000Z","ept":0.005,"lat":41.193317167,"lon":-111.942468167,"altHAE":1466.0000,"altMSL":1482.5000,"alt":1482.5000,"magvar":11.2,"geoidSep":-16.500,"eph":17.670}
{"class":"SKY","hdop":0.93,"uSat":13}
$GNVTG,000.0,T,348.3,M,000.0,N,000.1,K,A*30
$GNGLL,4111.59903,N,11156.54809,W,213712.000,A,A*50
{"class":"TPV","mode":3,"time":"2026-02-12T21:37:12.000Z","ept":0.005,"lat":41.193317167,"lon":-111.942468167,"altHAE":1466.0000,"altMSL":1482.5000,"alt":1482.5000,"track":0.0000,"magtrack":348.3000,"magvar":11.2,"speed":0.000,"geoidSep":-16.500,"eph":17.670}
$PTNLRBA,1,0*56
$PTNLRTP,T,21.35,3.0*2E
$PTNLRXO,1,-270.721*70
$PERC,GPdbg,1,3,1,0243100,0192600,0252101,0212705,0113700,0172400,0124500*55
$PERC,GPdbg,1,3,2,0223200,0062700,0884300,0772700,0762700,0701901,0873700*5F
$PERC,GPdbg,1,3,3,0783700,,,,,,*54
$PERC,GPdbg,1,10,07FF,11,19,1,2,0,02000,02000,4,1,+015.6,+007.8,02,06,0000*72
$PERC,GPppf,-06.1,-005.8,0,18,0*46
{"class":"OSC","running":true,"reference":true,"disciplined":true,"delta":-6}
$PERC,GPppr,423451,02405,00050,12,0,0*4D
{"class":"SKY","hdop":0.93,"nSat":0,"uSat":0}
{"class":"OSC","running":true,"reference":true,"disciplined":true,"delta":-6}
$PERC,GPsts,2,0,2,010011111111011111*7B
$GNZDA,213713.000,12,02,2026,,*4A
$GNGNS,213713.000,4111.59903,N,11156.54809,W,AANN,13,0.93,01482.5,-016.5,,*53
{"class":"SKY","hdop":0.93,"uSat":13}
$GNVTG,000.0,T,348.3,M,000.0,N,000.1,K,A*30
$GNGLL,4111.59903,N,11156.54809,W,213713.000,A,A*51
{"class":"TPV","mode":3,"time":"2026-02-12T21:37:13.000Z","ept":0.005,"lat":41.193317167,"lon":-111.942468167,"altHAE":1466.0000,"altMSL":1482.5000,"alt":1482.5000,"track":0.0000,"magtrack":348.3000,"magvar":11.2,"speed":0.000,"climb":0.000,"geoidSep":-16.500,"eph":17.670}
{"class":"SKY","hdop":0.93,"uSat":13}
{"class":"OSC","running":true,"reference":true,"disciplined":true,"delta":-6}
$PTNLRBA,1,0*56
$PTNLRTP,T,21.35,3.0*2E
$PTNLRXO,1,-270.751*77
$PERC,GPdbg,1,3,1,0243100,0192600,0252101,0212605,0113700,0172400,0124500*54
$PERC,GPdbg,1,3,2,0223200,0062600,0884300,0772700,0762700,0701901,0873700*5E
$PERC,GPdbg,1,3,3,0783700,,,,,,*54
$PERC,GPdbg,1,10,07FF,11,19,1,2,0,02000,02000,4,1,+015.7,+007.8,02,06,0000*73
$PERC,GPppf,+03.0,+001.1,0,18,0*4F
{"class":"TPV","mode":3,"time":"2026-02-12T21:37:13.000Z","ept":0.005,"lat":41.193317167,"lon":-111.942468167,"altHAE":1466.0000,"altMSL":1482.5000,"alt":1482.5000,"track":0.0000,"magtrack":348.3000,"magvar":11.2,"speed":0.000,"climb":0.000,"geoidSep":-16.500,"eph":17.670,"temp":21.350}
{"class":"OSC","running":true,"reference":true,"disciplined":true,"delta":3}
$PERC,GPppr,423452,02405,00050,12,0,0*4E
{"class":"TPV","mode":3,"time":"2026-02-12T21:37:13.000Z","ept":0.005,"lat":41.193317167,"lon":-111.942468167,"altHAE":1466.0000,"altMSL":1482.5000,"alt":1482.5000,"track":0.0000,"magtrack":348.3000,"magvar":11.2,"speed":0.000,"climb":0.000,"geoidSep":-16.500,"eph":17.670,"temp":21.350}
{"class":"SKY","hdop":0.93,"nSat":0,"uSat":0}
{"class":"OSC","running":true,"reference":true,"disciplined":true,"delta":3}
$PERC,GPsts,2,0,2,010011111111011111*7B
{"class":"TPV","status":7,"mode":3,"time":"2026-02-12T21:37:13.000Z","ept":0.005,"lat":41.193317167,"lon":-111.942468167,"altHAE":1466.0000,"altMSL":1482.5000,"alt":1482.5000,"track":0.0000,"magtrack":348.3000,"magvar":11.2,"speed":0.000,"climb":0.000,"geoidSep":-16.500,"eph":17.670,"temp":21.350}
$PERC,GPver,GRU 04 02,NCD 901 78/1,R1C,E640019302.1949*0D
{"class":"TPV","status":7,"mode":3,"time":"2026-02-12T21:37:13.000Z","ept":0.005,"lat":41.193317167,"lon":-111.942468167,"altHAE":1466.0000,"altMSL":1482.5000,"alt":1482.5000,"track":0.0000,"magtrack":348.3000,"magvar":11.2,"speed":0.000,"climb":0.000,"geoidSep":-16.500,"eph":17.670,"temp":21.350}
$PERC,GPctr,R,,,1,,*39
$PERC,GPavp,4111.5950,N,11156.5597,W,001492.2,M*2E
{"class":"TPV","status":7,"mode":3,"time":"2026-02-12T21:37:13.000Z","ept":0.005,"lat":41.193250000,"lon":-111.942661667,"altHAE":1492.2000,"altMSL":1482.5000,"alt":1482.5000,"track":0.0000,"magtrack":348.3000,"magvar":11.2,"speed":0.000,"climb":0.000,"geoidSep":-16.500,"eph":17.670,"temp":21.350}
$GNZDA,213714.000,12,02,2026,,*4D
$GNGNS,213714.000,4111.59903,N,11156.54809,W,AANN,13,0.93,01482.5,-016.5,,*54
{"class":"SKY","hdop":0.93,"uSat":13}
$GNVTG,000.0,T,348.3,M,000.0,N,000.1,K,A*30
$GNGLL,4111.59903,N,11156.54809,W,213714.000,A,A*56
{"class":"TPV","mode":3,"time":"2026-02-12T21:37:14.000Z","ept":0.005,"lat":41.193317167,"lon":-111.942468167,"altHAE":1466.0000,"altMSL":1482.5000,"alt":1482.5000,"track":0.0000,"magtrack":348.3000,"magvar":11.2,"speed":0.000,"climb":-26.200,"geoidSep":-16.500,"eph":17.670}
{"class":"SKY","hdop":0.93,"uSat":13}
$PTNLRBA,1,0*56
$PTNLRTP,T,21.35,3.0*2E
$PTNLRXO,1,-270.774*70
$PERC,GPdbg,1,3,1,0243100,0192600,0252101,0212605,0113700,0172400,0124500*54
$PERC,GPdbg,1,3,2,0223200,0062600,0884300,0772700,0762700,0701901,0873700*5E
$PERC,GPdbg,1,3,3,0783700,,,,,,*54
$PERC,GPdbg,1,10,07FF,11,19,1,2,0,02000,02000,4,1,+015.7,+007.8,02,06,0000*73
$PERC,GPppf,-02.9,+009.1,0,18,0*49
{"class":"TPV","mode":3,"time":"2026-02-12T21:37:14.000Z","ept":0.005,"lat":41.193317167,"lon":-111.942468167,"altHAE":1466.0000,"altMSL":1482.5000,"alt":1482.5000,"track":0.0000,"magtrack":348.3000,"magvar":11.2,"speed":0.000,"climb":-26.200,"geoidSep":-16.500,"eph":17.670,"temp":21.350}
{"class":"OSC","running":true,"reference":true,"disciplined":true,"delta":-2}
$PERC,GPppr,423453,02405,00050,12,0,0*4F
{"class":"TPV","mode":3,"time":"2026-02-12T21:37:14.000Z","ept":0.005,"lat":41.193317167,"lon":-111.942468167,"altHAE":1466.0000,"altMSL":1482.5000,"alt":1482.5000,"track":0.0000,"magtrack":348.3000,"magvar":11.2,"speed":0.000,"climb":-26.200,"geoidSep":-16.500,"eph":17.670,"temp":21.350}
{"class":"SKY","hdop":0.93,"nSat":0,"uSat":0}
{"class":"OSC","running":true,"reference":true,"disciplined":true,"delta":-2}
$PERC,GPsts,2,0,2,010011111111011111*7B
{"class":"TPV","status":7,"mode":3,"time":"2026-02-12T21:37:14.000Z","ept":0.005,"lat":41.193317167,"lon":-111.942468167,"altHAE":1466.0000,"altMSL":1482.5000,"alt":1482.5000,"track":0.0000,"magtrack":348.3000,"magvar":11.2,"speed":0.000,"climb":-26.200,"geoidSep":-16.500,"eph":17.670,"temp":21.350}
$GNZDA,213715.000,12,02,2026,,*4C
$GPGGA,213715.000,4111.59903,N,11156.54809,W,1,13,0.93,01482.5,M,-016.5,M,,*61
{"class":"SKY","hdop":0.93,"uSat":13}
$GNGNS,213715.000,4111.59903,N,11156.54809,W,AANN,13,0.93,01482.5,-016.5,,*55
{"class":"SKY","hdop":0.93,"uSat":13}
$GNVTG,000.0,T,348.3,M,000.0,N,000.0,K,A*31
$GNGLL,4111.59903,N,11156.54809,W,213715.000,A,A*57
{"class":"TPV","mode":3,"time":"2026-02-12T21:37:15.000Z","ept":0.005,"lat":41.193317167,"lon":-111.942468167,"altHAE":1466.0000,"altMSL":1482.5000,"alt":1482.5000,"track":0.0000,"magtrack":348.3000,"magvar":11.2,"speed":0.000,"climb":0.000,"geoidSep":-16.500,"eph":17.670}
{"class":"SKY","hdop":0.93,"uSat":13}
$GPGSA,A,3,24,19,11,17,12,22,06,,,,,,1.75,0.93,1.48*0B
{"class":"TPV","mode":3,"time":"2026-02-12T21:37:15.000Z","ept":0.005,"lat":41.193317167,"lon":-111.942468167,"altHAE":1466.0000,"altMSL":1482.5000,"alt":1482.5000,"epv":34.040,"track":0.0000,"magtrack":348.3000,"magvar":11.2,"speed":0.000,"climb":0.000,"geoidSep":-16.500,"eph":17.670,"sep":33.250}
{"class":"SKY","hdop":0.93,"pdop":1.75,"vdop":1.48,"uSat":13}
$GNGSA,A,3,88,77,76,87,78,,,,,,,,1.75,0.93,1.48*19
{"class":"TPV","mode":3,"time":"2026-02-12T21:37:15.000Z","ept":0.005,"lat":41.193317167,"lon":-111.942468167,"altHAE":1466.0000,"altMSL":1482.5000,"alt":1482.5000,"epv":34.040,"track":0.0000,"magtrack":348.3000,"magvar":11.2,"speed":0.000,"climb":0.000,"geoidSep":-16.500,"eph":17.670,"sep":33.250}
$PTNLRBA,1,0*56
$PTNLRTP,T,21.35,3.0*2E
$PTNLRXO,1,-270.666*72
$PERC,GPdbg,1,3,1,0243100,0192600,0252101,0212705,0113700,0172400,0124500*55
$PERC,GPdbg,1,3,2,0223100,0062500,0884300,0772700,0762700,0701901,0873700*5E
$PERC,GPdbg,1,3,3,0783800,,,,,,*5B
$PERC,GPdbg,1,10,07FF,11,19,1,2,0,02000,02000,4,1,+015.7,+007.8,02,06,0000*73
$PERC,GPppf,-06.9,+010.0,0,18,0*44
{"class":"TPV","mode":3,"time":"2026-02-12T21:37:15.000Z","ept":0.005,"lat":41.193317167,"lon":-111.942468167,"altHAE":1466.0000,"altMSL":1482.5000,"alt":1482.5000,"epv":34.040,"track":0.0000,"magtrack":348.3000,"magvar":11.2,"speed":0.000,"climb":0.000,"geoidSep":-16.500,"eph":17.670,"sep":33.250,"temp":21.350}
{"class":"OSC","running":true,"reference":true,"disciplined":true,"delta":-6}
$PERC,GPppr,423454,02405,00050,12,0,0*48
{"class":"TPV","mode":3,"time":"2026-02-12T21:37:15.000Z","ept":0.005,"lat":41.193317167,"lon":-111.942468167,"altHAE":1466.0000,"altMSL":1482.5000,"alt":1482.5000,"epv":34.040,"track":0.0000,"magtrack":348.3000,"magvar":11.2,"speed":0.000,"climb":0.000,"geoidSep":-16.500,"eph":17.670,"sep":33.250,"temp":21.350}
{"class":"SKY","hdop":0.93,"pdop":1.75,"vdop":1.48,"nSat":0,"uSat":0}
{"class":"OSC","running":true,"reference":true,"disciplined":true,"delta":-6}
$PERC,GPsts,2,0,2,010011111111011111*7B
{"class":"TPV","status":7,"mode":3,"time":"2026-02-12T21:37:15.000Z","ept":0.005,"lat":41.193317167,"lon":-111.942468167,"altHAE":1466.0000,"altMSL":1482.5000,"alt":1482.5000,"epv":34.040,"track":0.0000,"magtrack":348.3000,"magvar":11.2,"speed":0.000,"climb":0.000,"geoidSep":-16.500,"eph":17.670,"sep":33.250,"temp":21.350}
$GNZDA,213716.000,12,02,2026,,*4F
$GNGNS,213716.000,4111.59903,N,11156.54809,W,AANN,13,0.93,01482.5,-016.5,,*56
{"class":"SKY","hdop":0.93,"uSat":13}
$GNVTG,000.0,T,348.3,M,000.0,N,000.1,K,A*30
$GNGLL,4111.59903,N,11156.54809,W,213716.000,A,A*54
{"class":"TPV","mode":3,"time":"2026-02-12T21:37:16.000Z","ept":0.005,"lat":41.193317167,"lon":-111.942468167,"altHAE":1466.0000,"altMSL":1482.5000,"alt":1482.5000,"track":0.0000,"magtrack":348.3000,"magvar":11.2,"speed":0.000,"climb":0.000,"geoidSep":-16.500,"eph":17.670}
{"class":"SKY","hdop":0.93,"uSat":13}
$GPGSV,3,1,09,24,35,234,31,19,42,060,26,25,16,310,20,21,09,156,27*74
$GPGSV,3,2,09,11,61,190,37,17,19,070,24,12,56,313,45,22,18,123,31*7E
$GPGSV,3,3,09,06,64,062,25,,,,,,,,,,,,*47
{"class":"TPV","mode":3,"time":"2026-02-12T21:37:16.000Z","ept":0.005,"lat":41.193317167,"lon":-111.942468167,"altHAE":1466.0000,"altMSL":1482.5000,"alt":1482.5000,"epx":13.078,"epy":15.900,"epv":48.443,"track":0.0000,"magtrack":348.3000,"magvar":11.2,"speed":0.000,"climb":0.000,"epc":82.48,"geoidSep":-16.500,"eph":17.670,"sep":47.765}
{"class":"SKY","gdop":2.95,"hdop":0.93,"pdop":2.51,"tdop":1.53,"xdop":0.87,"ydop":1.06,"vdop":2.11,"nSat":9,"uSat":7,"satellites":[{"PRN":24,"gnssid":0,"svid":24,"az":234.0,"el":35.0,"ss":31.0,"used":true},{"PRN":19,"gnssid":0,"svid":19,"az":60.0,"el":42.0,"ss":26.0,"used":true},{"PRN":25,"gnssid":0,"svid":25,"az":310.0,"el":16.0,"ss":20.0,"used":false},{"PRN":21,"gnssid":0,"svid":21,"az":156.0,"el":9.0,"ss":27.0,"used":false},{"PRN":11,"gnssid":0,"svid":11,"az":190.0,"el":61.0,"ss":37.0,"used":true},{"PRN":17,"gnssid":0,"svid":17,"az":70.0,"el":19.0,"ss":24.0,"used":true},{"PRN":12,"gnssid":0,"svid":12,"az":313.0,"el":56.0,"ss":45.0,"used":true},{"PRN":22,"gnssid":0,"svid":22,"az":123.0,"el":18.0,"ss":31.0,"used":true},{"PRN":6,"gnssid":0,"svid":6,"az":62.0,"el":64.0,"ss":25.0,"used":true}]}
$GLGSV,2,1,06,88,49,239,43,77,70,156,26,76,20,148,27,70,02,006,19*63
$GLGSV,2,2,06,87,57,025,37,78,46,324,38,,,,,,,,*6E
{"class":"TPV","mode":3,"time":"2026-02-12T21:37:16.000Z","ept":0.005,"lat":41.193317167,"lon":-111.942468167,"altHAE":1466.0000,"altMSL":1482.5000,"alt":1482.5000,"epx":13.078,"epy":15.900,"epv":48.443,"track":0.0000,"magtrack":348.3000,"magvar":11.2,"speed":0.000,"climb":0.000,"epc":82.48,"geoidSep":-16.500,"eph":17.670,"sep":47.765}
{"class":"SKY","gdop":2.95,"hdop":0.93,"pdop":2.51,"tdop":1.53,"xdop":0.87,"ydop":1.06,"vdop":2.11,"nSat":15,"uSat":12,"satellites":[{"PRN":24,"gnssid":0,"svid":24,"az":234.0,"el":35.0,"ss":31.0,"used":true},{"PRN":19,"gnssid":0,"svid":19,"az":60.0,"el":42.0,"ss":26.0,"used":true},{"PRN":25,"gnssid":0,"svid":25,"az":310.0,"el":16.0,"ss":20.0,"used":false},{"PRN":21,"gnssid":0,"svid":21,"az":156.0,"el":9.0,"ss":27.0,"used":false},{"PRN":11,"gnssid":0,"svid":11,"az":190.0,"el":61.0,"ss":37.0,"used":true},{"PRN":17,"gnssid":0,"svid":17,"az":70.0,"el":19.0,"ss":24.0,"used":true},{"PRN":12,"gnssid":0,"svid":12,"az":313.0,"el":56.0,"ss":45.0,"used":true},{"PRN":22,"gnssid":0,"svid":22,"az":123.0,"el":18.0,"ss":31.0,"used":true},{"PRN":6,"gnssid":0,"svid":6,"az":62.0,"el":64.0,"ss":25.0,"used":true},{"PRN":88,"gnssid":6,"svid":24,"az":239.0,"el":49.0,"ss":43.0,"used":true},{"PRN":77,"gnssid":6,"svid":13,"az":156.0,"el":70.0,"ss":26.0,"used":true},{"PRN":76,"gnssid":6,"svid":12,"az":148.0,"el":20.0,"ss":27.0,"used":true},{"PRN":70,"gnssid":6,"svid":6,"az":6.0,"el":2.0,"ss":19.0,"used":false},{"PRN":87,"gnssid":6,"svid":23,"az":25.0,"el":57.0,"ss":37.0,"used":true},{"PRN":78,"gnssid":6,"svid":14,"az":324.0,"el":46.0,"ss":38.0,"used":true}]}
$PTNLRBA,1,0*56
$PTNLRTP,T,21.35,3.0*2E
$PTNLRXO,1,-270.777*73
$PERC,GPppf,+06.6,+013.0,0,18,0*4E
{"class":"TPV","mode":3,"time":"2026-02-12T21:37:16.000Z","ept":0.005,"lat":41.193317167,"lon":-111.942468167,"altHAE":1466.0000,"altMSL":1482.5000,"alt":1482.5000,"epx":13.078,"epy":15.900,"epv":48.443,"track":0.0000,"magtrack":348.3000,"magvar":11.2,"speed":0.000,"climb":0.000,"epc":82.48,"geoidSep":-16.500,"eph":17.670,"sep":47.765,"temp":21.350}
{"class":"OSC","running":true,"reference":true,"disciplined":true,"delta":6}
$PERC,GPppr,423455,02405,00050,12,0,0*49
{"class":"TPV","mode":3,"time":"2026-02-12T21:37:16.000Z","ept":0.005,"lat":41.193317167,"lon":-111.942468167,"altHAE":1466.0000,"altMSL":1482.5000,"alt":1482.5000,"epx":13.078,"epy":15.900,"epv":48.443,"track":0.0000,"magtrack":348.3000,"magvar":11.2,"speed":0.000,"climb":0.000,"epc":82.48,"geoidSep":-16.500,"eph":17.670,"sep":47.765,"temp":21.350}
{"class":"SKY","gdop":2.95,"hdop":0.93,"pdop":2.51,"tdop":1.53,"xdop":0.87,"ydop":1.06,"vdop":2.11,"nSat":15,"uSat":12,"satellites":[{"PRN":24,"gnssid":0,"svid":24,"az":234.0,"el":35.0,"ss":31.0,"used":true},{"PRN":19,"gnssid":0,"svid":19,"az":60.0,"el":42.0,"ss":26.0,"used":true},{"PRN":25,"gnssid":0,"svid":25,"az":310.0,"el":16.0,"ss":20.0,"used":false},{"PRN":21,"gnssid":0,"svid":21,"az":156.0,"el":9.0,"ss":27.0,"used":false},{"PRN":11,"gnssid":0,"svid":11,"az":190.0,"el":61.0,"ss":37.0,"used":true},{"PRN":17,"gnssid":0,"svid":17,"az":70.0,"el":19.0,"ss":24.0,"used":true},{"PRN":12,"gnssid":0,"svid":12,"az":313.0,"el":56.0,"ss":45.0,"used":true},{"PRN":22,"gnssid":0,"svid":22,"az":123.0,"el":18.0,"ss":31.0,"used":true},{"PRN":6,"gnssid":0,"svid":6,"az":62.0,"el":64.0,"ss":25.0,"used":true},{"PRN":88,"gnssid":6,"svid":24,"az":239.0,"el":49.0,"ss":43.0,"used":true},{"PRN":77,"gnssid":6,"svid":13,"az":156.0,"el":70.0,"ss":26.0,"used":true},{"PRN":76,"gnssid":6,"svid":12,"az":148.0,"el":20.0,"ss":27.0,"used":true},{"PRN":70,"gnssid":6,"svid":6,"az":6.0,"el":2.0,"ss":19.0,"used":false},{"PRN":87,"gnssid":6,"svid":23,"az":25.0,"el":57.0,"ss":37.0,"used":true},{"PRN":78,"gnssid":6,"svid":14,"az":324.0,"el":46.0,"ss":38.0,"used":true}]}
{"class":"OSC","running":true,"reference":true,"disciplined":true,"delta":6}
$PERC,GPsts,2,0,2,010011111111011111*7B
{"class":"TPV","status":7,"mode":3,"time":"2026-02-12T21:37:16.000Z","ept":0.005,"lat":41.193317167,"lon":-111.942468167,"altHAE":1466.0000,"altMSL":1482.5000,"alt":1482.5000,"epx":13.078,"epy":15.900,"epv":48.443,"track":0.0000,"magtrack":348.3000,"magvar":11.2,"speed":0.000,"climb":0.000,"epc":82.48,"geoidSep":-16.500,"eph":17.670,"sep":47.765,"temp":21.350}
$PERC,FWsts,010100,,,0,0,0*7D
$PERC,GPreh,00:00:00 00/00/0000,8*58
$GNZDA,213717.000,12,02,2026,,*4E
$GNGNS,213717.000,4111.59903,N,11156.54809,W,AANN,13,0.93,01482.5,-016.5,,*57
{"class":"SKY","hdop":0.93,"uSat":13}
$GNVTG,000.0,T,348.3,M,000.0,N,000.1,K,A*30
$GNGLL,4111.59903,N,11156.54809,W,213717.000,A,A*55
{"class":"TPV","mode":3,"time":"2026-02-12T21:37:17.000Z","ept":0.005,"lat":41.193317167,"lon":-111.942468167,"altHAE":1466.0000,"altMSL":1482.5000,"alt":1482.5000,"track":0.0000,"magtrack":348.3000,"magvar":11.2,"speed":0.000,"climb":0.000,"geoidSep":-16.500,"eph":17.670}
{"class":"SKY","hdop":0.93,"uSat":13}
$PTNLRBA,1,0*56
$PTNLRTP,T,21.34,3.0*2F
$PTNLRXO,1,-270.731*71
$PERC,GPdbg,1,3,1,0243100,0192600,0252001,0212705,0113700,0172400,0124600*57
$PERC,GPdbg,1,3,2,0223100,0062500,0884300,0772600,0762700,0701901,0873700*5F
$PERC,GPdbg,1,3,3,0783800,,,,,,*5B
$PERC,GPdbg,1,10,07FF,11,19,1,2,0,02000,02000,4,1,+015.7,+007.8,02,06,0000*73
$PERC,GPppf,-07.6,+009.5,0,18,0*47
{"class":"TPV","mode":3,"time":"2026-02-12T21:37:17.000Z","ept":0.005,"lat":41.193317167,"lon":-111.942468167,"altHAE":1466.0000,"altMSL":1482.5000,"alt":1482.5000,"track":0.0000,"magtrack":348.3000,"magvar":11.2,"speed":0.000,"climb":0.000,"geoidSep":-16.500,"eph":17.670,"temp":21.340}
{"class":"OSC","running":true,"reference":true,"disciplined":true,"delta":-7}
$PERC,GPppr,423456,02405,00050,12,0,0*4A
{"class":"TPV","mode":3,"time":"2026-02-12T21:37:17.000Z","ept":0.005,"lat":41.193317167,"lon":-111.942468167,"altHAE":1466.0000,"altMSL":1482.5000,"alt":1482.5000,"epx":9.864,"epy":10.223,"epv":37.131,"track":0.0000,"magtrack":348.3000,"magvar":11.2,"speed":0.000,"climb":0.000,"eps":26.12,"epc":85.57,"geoidSep":-16.500,"eph":17.670,"sep":35.562,"temp":21.340}
{"class":"SKY","gdop":2.21,"hdop":0.93,"pdop":1.87,"tdop":1.18,"xdop":0.66,"ydop":0.68,"vdop":1.61,"nSat":15,"uSat":12,"satellites":[{"PRN":24,"gnssid":0,"svid":24,"az":234.0,"el":35.0,"ss":31.0,"used":true},{"PRN":19,"gnssid":0,"svid":19,"az":60.0,"el":42.0,"ss":26.0,"used":true},{"PRN":25,"gnssid":0,"svid":25,"az":310.0,"el":16.0,"ss":20.0,"used":false},{"PRN":21,"gnssid":0,"svid":21,"az":156.0,"el":9.0,"ss":27.0,"used":false},{"PRN":11,"gnssid":0,"svid":11,"az":190.0,"el":61.0,"ss":37.0,"used":true},{"PRN":17,"gnssid":0,"svid":17,"az":70.0,"el":19.0,"ss":24.0,"used":true},{"PRN":12,"gnssid":0,"svid":12,"az":313.0,"el":56.0,"ss":45.0,"used":true},{"PRN":22,"gnssid":0,"svid":22,"az":123.0,"el":18.0,"ss":31.0,"used":true},{"PRN":6,"gnssid":0,"svid":6,"az":62.0,"el":64.0,"ss":25.0,"used":true},{"PRN":88,"gnssid":6,"svid":24,"az":239.0,"el":49.0,"ss":43.0,"used":true},{"PRN":77,"gnssid":6,"svid":13,"az":156.0,"el":70.0,"ss":26.0,"used":true},{"PRN":76,"gnssid":6,"svid":12,"az":148.0,"el":20.0,"ss":27.0,"used":true},{"PRN":70,"gnssid":6,"svid":6,"az":6.0,"el":2.0,"ss":19.0,"used":false},{"PRN":87,"gnssid":6,"svid":23,"az":25.0,"el":57.0,"ss":37.0,"used":true},{"PRN":78,"gnssid":6,"svid":14,"az":324.0,"el":46.0,"ss":38.0,"used":true}]}
{"class":"OSC","running":true,"reference":true,"disciplined":true,"delta":-7}
$PERC,GPsts,2,0,2,010011111111011111*7B
{"class":"TPV","status":7,"mode":3,"time":"2026-02-12T21:37:17.000Z","ept":0.005,"lat":41.193317167,"lon":-111.942468167,"altHAE":1466.0000,"altMSL":1482.5000,"alt":1482.5000,"epx":9.864,"epy":10.223,"epv":37.131,"track":0.0000,"magtrack":348.3000,"magvar":11.2,"speed":0.000,"climb":0.000,"eps":26.12,"epc":85.57,"geoidSep":-16.500,"eph":17.670,"sep":35.562,"temp":21.340}
$GNZDA,213718.000,12,02,2026,,*41
$GNGNS,213718.000,4111.59903,N,11156.54809,W,AANN,13,0.93,01482.5,-016.5,,*58
{"class":"SKY","hdop":0.93,"uSat":13}
$GNVTG,000.0,T,348.3,M,000.0,N,000.1,K,A*30
$GNGLL,4111.59903,N,11156.54809,W,213718.000,A,A*5A
{"class":"TPV","mode":3,"time":"2026-02-12T21:37:18.000Z","ept":0.005,"lat":41.193317167,"lon":-111.942468167,"altHAE":1466.0000,"altMSL":1482.5000,"alt":1482.5000,"track":0.0000,"magtrack":348.3000,"magvar":11.2,"speed":0.000,"climb":0.000,"geoidSep":-16.500,"eph":17.670}
{"class":"SKY","hdop":0.93,"uSat":13}
$PTNLRBA,1,0*56
$PTNLRTP,T,21.34,3.0*2F
$PTNLRXO,1,-270.836*79
$PERC,GPdbg,1,3,1,0243100,0192600,0252001,0212705,0113700,0172500,0124600*56
$PERC,GPdbg,1,3,2,0223100,0062500,0884300,0772600,0762700,0701801,0873700*5E
$PERC,GPdbg,1,3,3,0783800,,,,,,*5B
$PERC,GPdbg,1,10,07FF,11,19,1,2,0,02000,02000,4,1,+015.7,+007.8,02,06,0000*73
$PERC,GPppf,-04.4,+002.2,0,18,0*4A
{"class":"TPV","mode":3,"time":"2026-02-12T21:37:18.000Z","ept":0.005,"lat":41.193317167,"lon":-111.942468167,"altHAE":1466.0000,"altMSL":1482.5000,"alt":1482.5000,"track":0.0000,"magtrack":348.3000,"magvar":11.2,"speed":0.000,"climb":0.000,"geoidSep":-16.500,"eph":17.670,"temp":21.340}
{"class":"OSC","running":true,"reference":true,"disciplined":true,"delta":-4}
$PERC,GPppr,423457,02405,00050,12,0,0*4B
{"class":"TPV","mode":3,"time":"2026-02-12T21:37:18.000Z","ept":0.005,"lat":41.193317167,"lon":-111.942468167,"altHAE":1466.0000,"altMSL":1482.5000,"alt":1482.5000,"epx":9.864,"epy":10.223,"epv":37.131,"track":0.0000,"magtrack":348.3000,"magvar":11.2,"speed":0.000,"climb":0.000,"eps":20.45,"epc":74.26,"geoidSep":-16.500,"eph":17.670,"sep":35.562,"temp":21.340}
{"class":"SKY","gdop":2.21,"hdop":0.93,"pdop":1.87,"tdop":1.18,"xdop":0.66,"ydop":0.68,"vdop":1.61,"nSat":15,"uSat":12,"satellites":[{"PRN":24,"gnssid":0,"svid":24,"az":234.0,"el":35.0,"ss":31.0,"used":true},{"PRN":19,"gnssid":0,"svid":19,"az":60.0,"el":42.0,"ss":26.0,"used":true},{"PRN":25,"gnssid":0,"svid":25,"az":310.0,"el":16.0,"ss":20.0,"used":false},{"PRN":21,"gnssid":0,"svid":21,"az":156.0,"el":9.0,"ss":27.0,"used":false},{"PRN":11,"gnssid":0,"svid":11,"az":190.0,"el":61.0,"ss":37.0,"used":true},{"PRN":17,"gnssid":0,"svid":17,"az":70.0,"el":19.0,"ss":24.0,"used":true},{"PRN":12,"gnssid":0,"svid":12,"az":313.0,"el":56.0,"ss":45.0,"used":true},{"PRN":22,"gnssid":0,"svid":22,"az":123.0,"el":18.0,"ss":31.0,"used":true},{"PRN":6,"gnssid":0,"svid":6,"az":62.0,"el":64.0,"ss":25.0,"used":true},{"PRN":88,"gnssid":6,"svid":24,"az":239.0,"el":49.0,"ss":43.0,"used":true},{"PRN":77,"gnssid":6,"svid":13,"az":156.0,"el":70.0,"ss":26.0,"used":true},{"PRN":76,"gnssid":6,"svid":12,"az":148.0,"el":20.0,"ss":27.0,"used":true},{"PRN":70,"gnssid":6,"svid":6,"az":6.0,"el":2.0,"ss":19.0,"used":false},{"PRN":87,"gnssid":6,"svid":23,"az":25.0,"el":57.0,"ss":37.0,"used":true},{"PRN":78,"gnssid":6,"svid":14,"az":324.0,"el":46.0,"ss":38.0,"used":true}]}
{"class":"OSC","running":true,"reference":true,"disciplined":true,"delta":-4}
$PERC,GPsts,2,0,2,010011111111011111*7B
{"class":"TPV","status":7,"mode":3,"time":"2026-02-12T21:37:18.000Z","ept":0.005,"lat":41.193317167,"lon":-111.942468167,"altHAE":1466.0000,"altMSL":1482.5000,"alt":1482.5000,"epx":9.864,"epy":10.223,"epv":37.131,"track":0.0000,"magtrack":348.3000,"magvar":11.2,"speed":0.000,"climb":0.000,"eps":20.45,"epc":74.26,"geoidSep":-16.500,"eph":17.670,"sep":35.562,"temp":21.340}
$GNZDA,213719.000,12,02,2026,,*40
$GNGNS,213719.000,4111.59903,N,11156.54809,W,AANN,13,0.93,01482.5,-016.5,,*59
{"class":"SKY","hdop":0.93,"uSat":13}
$GNVTG,000.0,T,348.3,M,000.0,N,000.0,K,A*31
$GNGLL,4111.59903,N,11156.54809,W,213719.000,A,A*5B
{"class":"TPV","mode":3,"time":"2026-02-12T21:37:19.000Z","ept":0.005,"lat":41.193317167,"lon":-111.942468167,"altHAE":1466.0000,"altMSL":1482.5000,"alt":1482.5000,"track":0.0000,"magtrack":348.3000,"magvar":11.2,"speed":0.000,"climb":0.000,"geoidSep":-16.500,"eph":17.670}
{"class":"SKY","hdop":0.93,"uSat":13}
$PTNLRBA,1,0*56
$PTNLRTP,T,21.34,3.0*2F
$PTNLRXO,1,-270.767*72
$PERC,GPdbg,1,3,1,0243100,0192500,0252001,0212705,0113700,0172500,0124600*55
$PERC,GPdbg,1,3,2,0223200,0062500,0884300,0772600,0762700,0701801,0873700*5D
$PERC,GPdbg,1,3,3,0783800,,,,,,*5B
$PERC,GPdbg,1,10,07FF,11,19,1,2,0,02000,02000,4,1,+015.7,+007.8,02,06,0000*73
$PERC,GPppf,-00.7,+000.3,0,18,0*4E
{"class":"TPV","mode":3,"time":"2026-02-12T21:37:19.000Z","ept":0.005,"lat":41.193317167,"lon":-111.942468167,"altHAE":1466.0000,"altMSL":1482.5000,"alt":1482.5000,"track":0.0000,"magtrack":348.3000,"magvar":11.2,"speed":0.000,"climb":0.000,"geoidSep":-16.500,"eph":17.670,"temp":21.340}
{"class":"OSC","running":true,"reference":true,"disciplined":true,"delta":0}
$PERC,GPppr,423458,02405,00050,12,0,0*44
{"class":"TPV","mode":3,"time":"2026-02-12T21:37:19.000Z","ept":0.005,"lat":41.193317167,"lon":-111.942468167,"altHAE":1466.0000,"altMSL":1482.5000,"alt":1482.5000,"epx":9.864,"epy":10.223,"epv":37.131,"track":0.0000,"magtrack":348.3000,"magvar":11.2,"speed":0.000,"climb":0.000,"eps":20.45,"epc":74.26,"geoidSep":-16.500,"eph":17.670,"sep":35.562,"temp":21.340}
{"class":"SKY","gdop":2.21,"hdop":0.93,"pdop":1.87,"tdop":1.18,"xdop":0.66,"ydop":0.68,"vdop":1.61,"nSat":15,"uSat":12,"satellites":[{"PRN":24,"gnssid":0,"svid":24,"az":234.0,"el":35.0,"ss":31.0,"used":true},{"PRN":19,"gnssid":0,"svid":19,"az":60.0,"el":42.0,"ss":26.0,"used":true},{"PRN":25,"gnssid":0,"svid":25,"az":310.0,"el":16.0,"ss":20.0,"used":false},{"PRN":21,"gnssid":0,"svid":21,"az":156.0,"el":9.0,"ss":27.0,"used":false},{"PRN":11,"gnssid":0,"svid":11,"az":190.0,"el":61.0,"ss":37.0,"used":true},{"PRN":17,"gnssid":0,"svid":17,"az":70.0,"el":19.0,"ss":24.0,"used":true},{"PRN":12,"gnssid":0,"svid":12,"az":313.0,"el":56.0,"ss":45.0,"used":true},{"PRN":22,"gnssid":0,"svid":22,"az":123.0,"el":18.0,"ss":31.0,"used":true},{"PRN":6,"gnssid":0,"svid":6,"az":62.0,"el":64.0,"ss":25.0,"used":true},{"PRN":88,"gnssid":6,"svid":24,"az":239.0,"el":49.0,"ss":43.0,"used":true},{"PRN":77,"gnssid":6,"svid":13,"az":156.0,"el":70.0,"ss":26.0,"used":true},{"PRN":76,"gnssid":6,"svid":12,"az":148.0,"el":20.0,"ss":27.0,"used":true},{"PRN":70,"gnssid":6,"svid":6,"az":6.0,"el":2.0,"ss":19.0,"used":false},{"PRN":87,"gnssid":6,"svid":23,"az":25.0,"el":57.0,"ss":37.0,"used":true},{"PRN":78,"gnssid":6,"svid":14,"az":324.0,"el":46.0,"ss":38.0,"used":true}]}
{"class":"OSC","running":true,"reference":true,"disciplined":true,"delta":0}
$PERC,GPsts,2,0,2,010011111111011111*7B
{"class":"TPV","status":7,"mode":3,"time":"2026-02-12T21:37:19.000Z","ept":0.005,"lat":41.193317167,"lon":-111.942468167,"altHAE":1466.0000,"altMSL":1482.5000,"alt":1482.5000,"epx":9.864,"epy":10.223,"epv":37.131,"track":0.0000,"magtrack":348.3000,"magvar":11.2,"speed":0.000,"climb":0.000,"eps":20.45,"epc":74.26,"geoidSep":-16.500,"eph":17.670,"sep":35.562,"temp":21.340}
$GNZDA,213720.000,12,02,2026,,*4A
$GNGNS,213720.000,4111.59903,N,11156.54809,W,AANN,13,0.93,01482.5,-016.5,,*53
{"class":"SKY","hdop":0.93,"uSat":13}
$GNVTG,000.0,T,348.3,M,000.0,N,000.0,K,A*31
$GNGLL,4111.59903,N,11156.54809,W,213720.000,A,A*51
{"class":"TPV","mode":3,"time":"2026-02-12T21:37:20.000Z","ept":0.005,"lat":41.193317167,"lon":-111.942468167,"altHAE":1466.0000,"altMSL":1482.5000,"alt":1482.5000,"track":0.0000,"magtrack":348.3000,"magvar":11.2,"speed":0.000,"climb":0.000,"geoidSep":-16.500,"eph":17.670}
{"class":"SKY","hdop":0.93,"uSat":13}
$PTNLRBA,1,0*56
$PTNLRTP,T,21.34,3.0*2F
$PTNLRXO,1,-270.748*7F
$PERC,GPdbg,1,3,1,0243100,0192500,0252001,0212705,0113700,0172500,0124600*55
$PERC,GPdbg,1,3,2,0223200,0062400,0884300,0772600,0762700,0701801,0873700*5C
$PERC,GPdbg,1,3,3,0783800,,,,,,*5B
$PERC,GPdbg,1,10,07FF,11,19,1,2,0,02000,02000,4,1,+015.7,+007.8,02,06,0000*73
$PERC,GPppf,+03.0,-002.1,0,18,0*4A
{"class":"TPV","mode":3,"time":"2026-02-12T21:37:20.000Z","ept":0.005,"lat":41.193317167,"lon":-111.942468167,"altHAE":1466.0000,"altMSL":1482.5000,"alt":1482.5000,"track":0.0000,"magtrack":348.3000,"magvar":11.2,"speed":0.000,"climb":0.000,"geoidSep":-16.500,"eph":17.670,"temp":21.340}
{"class":"OSC","running":true,"reference":true,"disciplined":true,"delta":3}
$PERC,GPppr,423459,02405,00050,12,0,0*45
{"class":"TPV","mode":3,"time":"2026-02-12T21:37:20.000Z","ept":0.005,"lat":41.193317167,"lon":-111.942468167,"altHAE":1466.0000,"altMSL":1482.5000,"alt":1482.5000,"epx":9.864,"epy":10.223,"epv":37.131,"track":0.0000,"magtrack":348.3000,"magvar":11.2,"speed":0.000,"climb":0.000,"eps":20.45,"epc":74.26,"geoidSep":-16.500,"eph":17.670,"sep":35.562,"temp":21.340}
{"class":"SKY","gdop":2.21,"hdop":0.93,"pdop":1.87,"tdop":1.18,"xdop":0.66,"ydop":0.68,"vdop":1.61,"nSat":15,"uSat":12,"satellites":[{"PRN":24,"gnssid":0,"svid":24,"az":234.0,"el":35.0,"ss":31.0,"used":true},{"PRN":19,"gnssid":0,"svid":19,"az":60.0,"el":42.0,"ss":26.0,"used":true},{"PRN":25,"gnssid":0,"svid":25,"az":310.0,"el":16.0,"ss":20.0,"used":false},{"PRN":21,"gnssid":0,"svid":21,"az":156.0,"el":9.0,"ss":27.0,"used":false},{"PRN":11,"gnssid":0,"svid":11,"az":190.0,"el":61.0,"ss":37.0,"used":true},{"PRN":17,"gnssid":0,"svid":17,"az":70.0,"el":19.0,"ss":24.0,"used":true},{"PRN":12,"gnssid":0,"svid":12,"az":313.0,"el":56.0,"ss":45.0,"used":true},{"PRN":22,"gnssid":0,"svid":22,"az":123.0,"el":18.0,"ss":31.0,"used":true},{"PRN":6,"gnssid":0,"svid":6,"az":62.0,"el":64.0,"ss":25.0,"used":true},{"PRN":88,"gnssid":6,"svid":24,"az":239.0,"el":49.0,"ss":43.0,"used":true},{"PRN":77,"gnssid":6,"svid":13,"az":156.0,"el":70.0,"ss":26.0,"used":true},{"PRN":76,"gnssid":6,"svid":12,"az":148.0,"el":20.0,"ss":27.0,"used":true},{"PRN":70,"gnssid":6,"svid":6,"az":6.0,"el":2.0,"ss":19.0,"used":false},{"PRN":87,"gnssid":6,"svid":23,"az":25.0,"el":57.0,"ss":37.0,"used":true},{"PRN":78,"gnssid":6,"svid":14,"az":324.0,"el":46.0,"ss":38.0,"used":true}]}
{"class":"OSC","running":true,"reference":true,"disciplined":true,"delta":3}
$PERC,GPsts,2,0,2,010011111111011111*7B
{"class":"TPV","status":7,"mode":3,"time":"2026-02-12T21:37:20.000Z","ept":0.005,"lat":41.193317167,"lon":-111.942468167,"altHAE":1466.0000,"altMSL":1482.5000,"alt":1482.5000,"epx":9.864,"epy":10.223,"epv":37.131,"track":0.0000,"magtrack":348.3000,"magvar":11.2,"speed":0.000,"climb":0.000,"eps":20.45,"epc":74.26,"geoidSep":-16.500,"eph":17.670,"sep":35.562,"temp":21.340}
$GNZDA,213721.000,12,02,2026,,*4B
$GNGNS,213721.000,4111.59903,N,11156.54809,W,AANN,13,0.93,01482.5,-016.5,,*52
{"class":"SKY","hdop":0.93,"uSat":13}
$GNVTG,000.0,T,348.3,M,000.1,N,000.1,K,A*31
$GNGLL,4111.59903,N,11156.54809,W,213721.000,A,A*50
{"class":"TPV","mode":3,"time":"2026-02-12T21:37:21.000Z","ept":0.005,"lat":41.193317167,"lon":-111.942468167,"altHAE":1466.0000,"altMSL":1482.5000,"alt":1482.5000,"track":0.0000,"magtrack":348.3000,"magvar":11.2,"speed":0.051,"climb":0.000,"geoidSep":-16.500,"eph":17.670}
{"class":"SKY","hdop":0.93,"uSat":13}
$PTNLRBA,1,0*56
$PTNLRTP,T,21.34,3.0*2F
$PTNLRXO,1,-270.673*76
$PERC,GPdbg,1,3,1,0243100,0192500,0252001,0212705,0113700,0172500,0124600*55
$PERC,GPdbg,1,3,2,0223200,0062400,0884300,0772600,0762700,0701801,0873700*5C
$PERC,GPdbg,1,3,3,0783800,,,,,,*5B
$PERC,GPdbg,1,10,07FF,11,19,1,2,0,02000,02000,4,1,+015.7,+007.8,02,06,0000*73
$PERC,GPppf,+06.3,+020.7,0,18,0*4C
{"class":"TPV","mode":3,"time":"2026-02-12T21:37:21.000Z","ept":0.005,"lat":41.193317167,"lon":-111.942468167,"altHAE":1466.0000,"altMSL":1482.5000,"alt":1482.5000,"track":0.0000,"magtrack":348.3000,"magvar":11.2,"speed":0.051,"climb":0.000,"geoidSep":-16.500,"eph":17.670,"temp":21.340}
{"class":"OSC","running":true,"reference":true,"disciplined":true,"delta":6}
$PERC,GPppr,423460,02405,00050,12,0,0*4F
{"class":"TPV","mode":3,"time":"2026-02-12T21:37:21.000Z","ept":0.005,"lat":41.193317167,"lon":-111.942468167,"altHAE":1466.0000,"altMSL":1482.5000,"alt":1482.5000,"epx":9.864,"epy":10.223,"epv":37.131,"track":0.0000,"magtrack":348.3000,"magvar":11.2,"speed":0.051,"climb":0.000,"eps":20.45,"epc":74.26,"geoidSep":-16.500,"eph":17.670,"sep":35.562,"temp":21.340}
{"class":"SKY","gdop":2.21,"hdop":0.93,"pdop":1.87,"tdop":1.18,"xdop":0.66,"ydop":0.68,"vdop":1.61,"nSat":15,"uSat":12,"satellites":[{"PRN":24,"gnssid":0,"svid":24,"az":234.0,"el":35.0,"ss":31.0,"used":true},{"PRN":19,"gnssid":0,"svid":19,"az":60.0,"el":42.0,"ss":26.0,"used":true},{"PRN":25,"gnssid":0,"svid":25,"az":310.0,"el":16.0,"ss":20.0,"used":false},{"PRN":21,"gnssid":0,"svid":21,"az":156.0,"el":9.0,"ss":27.0,"used":false},{"PRN":11,"gnssid":0,"svid":11,"az":190.0,"el":61.0,"ss":37.0,"used":true},{"PRN":17,"gnssid":0,"svid":17,"az":70.0,"el":19.0,"ss":24.0,"used":true},{"PRN":12,"gnssid":0,"svid":12,"az":313.0,"el":56.0,"ss":45.0,"used":true},{"PRN":22,"gnssid":0,"svid":22,"az":123.0,"el":18.0,"ss":31.0,"used":true},{"PRN":6,"gnssid":0,"svid":6,"az":62.0,"el":64.0,"ss":25.0,"used":true},{"PRN":88,"gnssid":6,"svid":24,"az":239.0,"el":49.0,"ss":43.0,"used":true},{"PRN":77,"gnssid":6,"svid":13,"az":156.0,"el":70.0,"ss":26.0,"used":true},{"PRN":76,"gnssid":6,"svid":12,"az":148.0,"el":20.0,"ss":27.0,"used":true},{"PRN":70,"gnssid":6,"svid":6,"az":6.0,"el":2.0,"ss":19.0,"used":false},{"PRN":87,"gnssid":6,"svid":23,"az":25.0,"el":57.0,"ss":37.0,"used":true},{"PRN":78,"gnssid":6,"svid":14,"az":324.0,"el":46.0,"ss":38.0,"used":true}]}
{"class":"OSC","running":true,"reference":true,"disciplined":true,"delta":6}
$PERC,GPsts,2,0,2,010011111111011111*7B
{"class":"TPV","status":7,"mode":3,"time":"2026-02-12T21:37:21.000Z","ept":0.005,"lat":41.193317167,"lon":-111.942468167,"altHAE":1466.0000,"altMSL":1482.5000,"alt":1482.5000,"epx":9.864,"epy":10.223,"epv":37.131,"track":0.0000,"magtrack":348.3000,"magvar":11.2,"speed":0.051,"climb":0.000,"eps":20.45,"epc":74.26,"geoidSep":-16.500,"eph":17.670,"sep":35.562,"temp":21.340}
$GNZDA,213722.000,12,02,2026,,*48
$GNGNS,213722.000,4111.59903,N,11156.54809,W,AANN,13,0.93,01482.5,-016.5,,*51
{"class":"SKY","hdop":0.93,"uSat":13}
$GNVTG,000.0,T,348.3,M,000.0,N,000.1,K,A*30
$GNGLL,4111.59903,N,11156.54809,W,213722.000,A,A*53
{"class":"TPV","mode":3,"time":"2026-02-12T21:37:22.000Z","ept":0.005,"lat":41.193317167,"lon":-111.942468167,"altHAE":1466.0000,"altMSL":1482.5000,"alt":1482.5000,"track":0.0000,"magtrack":348.3000,"magvar":11.2,"speed":0.000,"climb":0.000,"geoidSep":-16.500,"eph":17.670}
{"class":"SKY","hdop":0.93,"uSat":13}
$PTNLRBA,1,0*56
$PTNLRTP,T,21.34,3.0*2F
$PTNLRXO,1,-270.653*74
$PERC,GPdbg,1,3,1,0243100,0192500,0252001,0212705,0113700,0172500,0124600*55
$PERC,GPdbg,1,3,2,0223200,0062400,0884300,0772600,0762700,0701801,0873700*5C
$PERC,GPdbg,1,3,3,0783800,,,,,,*5B
$PERC,GPdbg,1,10,07FF,11,19,1,2,0,02000,02000,4,1,+015.7,+007.8,02,06,0000*73
$PERC,GPppf,-01.2,-014.1,0,18,0*4B
{"class":"TPV","mode":3,"time":"2026-02-12T21:37:22.000Z","ept":0.005,"lat":41.193317167,"lon":-111.942468167,"altHAE":1466.0000,"altMSL":1482.5000,"alt":1482.5000,"track":0.0000,"magtrack":348.3000,"magvar":11.2,"speed":0.000,"climb":0.000,"geoidSep":-16.500,"eph":17.670,"temp":21.340}
{"class":"OSC","running":true,"reference":true,"disciplined":true,"delta":-1}
$PERC,GPppr,423461,02405,00050,12,0,0*4E
{"class":"TPV","mode":3,"time":"2026-02-12T21:37:22.000Z","ept":0.005,"lat":41.193317167,"lon":-111.942468167,"altHAE":1466.0000,"altMSL":1482.5000,"alt":1482.5000,"epx":9.864,"epy":10.223,"epv":37.131,"track":0.0000,"magtrack":348.3000,"magvar":11.2,"speed":0.000,"climb":0.000,"eps":20.45,"epc":74.26,"geoidSep":-16.500,"eph":17.670,"sep":35.562,"temp":21.340}
{"class":"SKY","gdop":2.21,"hdop":0.93,"pdop":1.87,"tdop":1.18,"xdop":0.66,"ydop":0.68,"vdop":1.61,"nSat":15,"uSat":12,"satellites":[{"PRN":24,"gnssid":0,"svid":24,"az":234.0,"el":35.0,"ss":31.0,"used":true},{"PRN":19,"gnssid":0,"svid":19,"az":60.0,"el":42.0,"ss":26.0,"used":true},{"PRN":25,"gnssid":0,"svid":25,"az":310.0,"el":16.0,"ss":20.0,"used":false},{"PRN":21,"gnssid":0,"svid":21,"az":156.0,"el":9.0,"ss":27.0,"used":false},{"PRN":11,"gnssid":0,"svid":11,"az":190.0,"el":61.0,"ss":37.0,"used":true},{"PRN":17,"gnssid":0,"svid":17,"az":70.0,"el":19.0,"ss":24.0,"used":true},{"PRN":12,"gnssid":0,"svid":12,"az":313.0,"el":56.0,"ss":45.0,"used":true},{"PRN":22,"gnssid":0,"svid":22,"az":123.0,"el":18.0,"ss":31.0,"used":true},{"PRN":6,"gnssid":0,"svid":6,"az":62.0,"el":64.0,"ss":25.0,"used":true},{"PRN":88,"gnssid":6,"svid":24,"az":239.0,"el":49.0,"ss":43.0,"used":true},{"PRN":77,"gnssid":6,"svid":13,"az":156.0,"el":70.0,"ss":26.0,"used":true},{"PRN":76,"gnssid":6,"svid":12,"az":148.0,"el":20.0,"ss":27.0,"used":true},{"PRN":70,"gnssid":6,"svid":6,"az":6.0,"el":2.0,"ss":19.0,"used":false},{"PRN":87,"gnssid":6,"svid":23,"az":25.0,"el":57.0,"ss":37.0,"used":true},{"PRN":78,"gnssid":6,"svid":14,"az":324.0,"el":46.0,"ss":38.0,"used":true}]}
{"class":"OSC","running":true,"reference":true,"disciplined":true,"delta":-1}
$PERC,GPsts,2,0,2,010011111111011111*7B
{"class":"TPV","status":7,"mode":3,"time":"2026-02-12T21:37:22.000Z","ept":0.005,"lat":41.193317167,"lon":-111.942468167,"altHAE":1466.0000,"altMSL":1482.5000,"alt":1482.5000,"epx":9.864,"epy":10.223,"epv":37.131,"track":0.0000,"magtrack":348.3000,"magvar":11.2,"speed":0.000,"climb":0.000,"eps":20.45,"epc":74.26,"geoidSep":-16.500,"eph":17.670,"sep":35.562,"temp":21.340}
$GNZDA,213723.000,12,02,2026,,*49
$GNGNS,213723.000,4111.59903,N,11156.54809,W,AANN,13,0.93,01482.5,-016.5,,*50
{"class":"SKY","hdop":0.93,"uSat":13}
$GNVTG,000.0,T,348.3,M,000.0,N,000.1,K,A*30
$GNGLL,4111.59903,N,11156.54809,W,213723.000,A,A*52
{"class":"TPV","mode":3,"time":"2026-02-12T21:37:23.000Z","ept":0.005,"lat":41.193317167,"lon":-111.942468167,"altHAE":1466.0000,"altMSL":1482.5000,"alt":1482.5000,"track":0.0000,"magtrack":348.3000,"magvar":11.2,"speed":0.000,"climb":0.000,"geoidSep":-16.500,"eph":17.670}
{"class":"SKY","hdop":0.93,"uSat":13}
$PTNLRBA,1,0*56
$PTNLRTP,T,21.35,3.0*2E
$PTNLRXO,1,-270.738*78
$PERC,GPdbg,1,3,1,0243100,0192500,0252001,0212705,0113700,0172600,0124600*56
$PERC,GPdbg,1,3,2,0223200,0062400,0884300,0772600,0762700,0701901,0873700*5D
$PERC,GPdbg,1,3,3,0783800,,,,,,*5B
$PERC,GPdbg,1,10,07FF,11,19,1,2,0,02000,02000,4,1,+015.7,+007.8,02,06,0000*73
$PERC,GPppf,+03.5,-017.2,0,18,0*48
{"class":"TPV","mode":3,"time":"2026-02-12T21:37:23.000Z","ept":0.005,"lat":41.193317167,"lon":-111.942468167,"altHAE":1466.0000,"altMSL":1482.5000,"alt":1482.5000,"track":0.0000,"magtrack":348.3000,"magvar":11.2,"speed":0.000,"climb":0.000,"geoidSep":-16.500,"eph":17.670,"temp":21.350}
{"class":"OSC","running":true,"reference":true,"disciplined":true,"delta":3}
$PERC,GPppr,423462,02405,00050,12,0,0*4D
{"class":"TPV","mode":3,"time":"2026-02-12T21:37:23.000Z","ept":0.005,"lat":41.193317167,"lon":-111.942468167,"altHAE":1466.0000,"altMSL":1482.5000,"alt":1482.5000,"epx":9.864,"epy":10.223,"epv":37.131,"track":0.0000,"magtrack":348.3000,"magvar":11.2,"speed":0.000,"climb":0.000,"eps":20.45,"epc":74.26,"geoidSep":-16.500,"eph":17.670,"sep":35.562,"temp":21.350}
{"class":"SKY","gdop":2.21,"hdop":0.93,"pdop":1.87,"tdop":1.18,"xdop":0.66,"ydop":0.68,"vdop":1.61,"nSat":15,"uSat":12,"satellites":[{"PRN":24,"gnssid":0,"svid":24,"az":234.0,"el":35.0,"ss":31.0,"used":true},{"PRN":19,"gnssid":0,"svid":19,"az":60.0,"el":42.0,"ss":26.0,"used":true},{"PRN":25,"gnssid":0,"svid":25,"az":310.0,"el":16.0,"ss":20.0,"used":false},{"PRN":21,"gnssid":0,"svid":21,"az":156.0,"el":9.0,"ss":27.0,"used":false},{"PRN":11,"gnssid":0,"svid":11,"az":190.0,"el":61.0,"ss":37.0,"used":true},{"PRN":17,"gnssid":0,"svid":17,"az":70.0,"el":19.0,"ss":24.0,"used":true},{"PRN":12,"gnssid":0,"svid":12,"az":313.0,"el":56.0,"ss":45.0,"used":true},{"PRN":22,"gnssid":0,"svid":22,"az":123.0,"el":18.0,"ss":31.0,"used":true},{"PRN":6,"gnssid":0,"svid":6,"az":62.0,"el":64.0,"ss":25.0,"used":true},{"PRN":88,"gnssid":6,"svid":24,"az":239.0,"el":49.0,"ss":43.0,"used":true},{"PRN":77,"gnssid":6,"svid":13,"az":156.0,"el":70.0,"ss":26.0,"used":true},{"PRN":76,"gnssid":6,"svid":12,"az":148.0,"el":20.0,"ss":27.0,"used":true},{"PRN":70,"gnssid":6,"svid":6,"az":6.0,"el":2.0,"ss":19.0,"used":false},{"PRN":87,"gnssid":6,"svid":23,"az":25.0,"el":57.0,"ss":37.0,"used":true},{"PRN":78,"gnssid":6,"svid":14,"az":324.0,"el":46.0,"ss":38.0,"used":true}]}
{"class":"OSC","running":true,"reference":true,"disciplined":true,"delta":3}
$PERC,GPsts,2,0,2,010011111111011111*7B
{"class":"TPV","status":7,"mode":3,"time":"2026-02-12T21:37:23.000Z","ept":0.005,"lat":41.193317167,"lon":-111.942468167,"altHAE":1466.0000,"altMSL":1482.5000,"alt":1482.5000,"epx":9.864,"epy":10.223,"epv":37.131,"track":0.0000,"magtrack":348.3000,"magvar":11.2,"speed":0.000,"climb":0.000,"eps":20.45,"epc":74.26,"geoidSep":-16.500,"eph":17.670,"sep":35.562,"temp":21.350}
$GNZDA,213724.000,12,02,2026,,*4E
$GNGNS,213724.000,4111.59903,N,11156.54809,W,AANN,13,0.93,01482.5,-016.5,,*57
{"class":"SKY","hdop":0.93,"uSat":13}
$GNVTG,000.0,T,348.3,M,000.0,N,000.0,K,A*31
$GNGLL,4111.59903,N,11156.54809,W,213724.000,A,A*55
{"class":"TPV","mode":3,"time":"2026-02-12T21:37:24.000Z","ept":0.005,"lat":41.193317167,"lon":-111.942468167,"altHAE":1466.0000,"altMSL":1482.5000,"alt":1482.5000,"track":0.0000,"magtrack":348.3000,"magvar":11.2,"speed":0.000,"climb":0.000,"geoidSep":-16.500,"eph":17.670}
{"class":"SKY","hdop":0.93,"uSat":13}
$PTNLRBA,1,0*56
$PTNLRTP,T,21.34,3.0*2F
$PTNLRXO,1,-270.682*78
$PERC,GPdbg,1,3,1,0243100,0192500,0252001,0212705,0113700,0172600,0124600*56
$PERC,GPdbg,1,3,2,0223200,0062300,0884300,0772600,0762700,0701901,0873700*5A
$PERC,GPdbg,1,3,3,0783800,,,,,,*5B
$PERC,GPdbg,1,10,07FF,11,19,1,2,0,02000,02000,4,1,+015.7,+007.8,02,06,0000*73
$PERC,GPppf,+04.5,+010.0,0,18,0*4C
{"class":"TPV","mode":3,"time":"2026-02-12T21:37:24.000Z","ept":0.005,"lat":41.193317167,"lon":-111.942468167,"altHAE":1466.0000,"altMSL":1482.5000,"alt":1482.5000,"track":0.0000,"magtrack":348.3000,"magvar":11.2,"speed":0.000,"climb":0.000,"geoidSep":-16.500,"eph":17.670,"temp":21.340}
{"class":"OSC","running":true,"reference":true,"disciplined":true,"delta":4}
$PERC,GPppr,423463,02405,00050,12,0,0*4C
{"class":"TPV","mode":3,"time":"2026-02-12T21:37:24.000Z","ept":0.005,"lat":41.193317167,"lon":-111.942468167,"altHAE":1466.0000,"altMSL":1482.5000,"alt":1482.5000,"epx":9.864,"epy":10.223,"epv":37.131,"track":0.0000,"magtrack":348.3000,"magvar":11.2,"speed":0.000,"climb":0.000,"eps":20.45,"epc":74.26,"geoidSep":-16.500,"eph":17.670,"sep":35.562,"temp":21.340}
{"class":"SKY","gdop":2.21,"hdop":0.93,"pdop":1.87,"tdop":1.18,"xdop":0.66,"ydop":0.68,"vdop":1.61,"nSat":15,"uSat":12,"satellites":[{"PRN":24,"gnssid":0,"svid":24,"az":234.0,"el":35.0,"ss":31.0,"used":true},{"PRN":19,"gnssid":0,"svid":19,"az":60.0,"el":42.0,"ss":26.0,"used":true},{"PRN":25,"gnssid":0,"svid":25,"az":310.0,"el":16.0,"ss":20.0,"used":false},{"PRN":21,"gnssid":0,"svid":21,"az":156.0,"el":9.0,"ss":27.0,"used":false},{"PRN":11,"gnssid":0,"svid":11,"az":190.0,"el":61.0,"ss":37.0,"used":true},{"PRN":17,"gnssid":0,"svid":17,"az":70.0,"el":19.0,"ss":24.0,"used":true},{"PRN":12,"gnssid":0,"svid":12,"az":313.0,"el":56.0,"ss":45.0,"used":true},{"PRN":22,"gnssid":0,"svid":22,"az":123.0,"el":18.0,"ss":31.0,"used":true},{"PRN":6,"gnssid":0,"svid":6,"az":62.0,"el":64.0,"ss":25.0,"used":true},{"PRN":88,"gnssid":6,"svid":24,"az":239.0,"el":49.0,"ss":43.0,"used":true},{"PRN":77,"gnssid":6,"svid":13,"az":156.0,"el":70.0,"ss":26.0,"used":true},{"PRN":76,"gnssid":6,"svid":12,"az":148.0,"el":20.0,"ss":27.0,"used":true},{"PRN":70,"gnssid":6,"svid":6,"az":6.0,"el":2.0,"ss":19.0,"used":false},{"PRN":87,"gnssid":6,"svid":23,"az":25.0,"el":57.0,"ss":37.0,"used":true},{"PRN":78,"gnssid":6,"svid":14,"az":324.0,"el":46.0,"ss":38.0,"used":true}]}
{"class":"OSC","running":true,"reference":true,"disciplined":true,"delta":4}
$PERC,GPsts,2,0,2,010011111111011111*7B
{"class":"TPV","status":7,"mode":3,"time":"2026-02-12T21:37:24.000Z","ept":0.005,"lat":41.193317167,"lon":-111.942468167,"altHAE":1466.0000,"altMSL":1482.5000,"alt":1482.5000,"epx":9.864,"epy":10.223,"epv":37.131,"track":0.0000,"magtrack":348.3000,"magvar":11.2,"speed":0.000,"climb":0.000,"eps":20.45,"epc":74.26,"geoidSep":-16.500,"eph":17.670,"sep":35.562,"temp":21.340}
$GNZDA,213725.000,12,02,2026,,*4F
$GNGNS,213725.000,4111.59903,N,11156.54809,W,AANN,13,0.93,01482.5,-016.5,,*56
{"class":"SKY","hdop":0.93,"uSat":13}
$GNVTG,000.0,T,348.3,M,000.1,N,000.1,K,A*31
$GNGLL,4111.59903,N,11156.54809,W,213725.000,A,A*54
{"class":"TPV","mode":3,"time":"2026-02-12T21:37:25.000Z","ept":0.005,"lat":41.193317167,"lon":-111.942468167,"altHAE":1466.0000,"altMSL":1482.5000,"alt":1482.5000,"track":0.0000,"magtrack":348.3000,"magvar":11.2,"speed":0.051,"climb":0.000,"geoidSep":-16.500,"eph":17.670}
{"class":"SKY","hdop":0.93,"uSat":13}
$PTNLRBA,1,0*56
$PTNLRTP,T,21.34,3.0*2F
$PTNLRXO,1,-270.748*7F
$PERC,GPdbg,1,3,1,0243100,0192500,0252001,0212705,0113700,0172600,0124600*56
$PERC,GPdbg,1,3,2,0223200,0062300,0884300,0772600,0762700,0701901,0873700*5A
$PERC,GPdbg,1,3,3,0783800,,,,,,*5B
$PERC,GPdbg,1,10,07FF,11,19,1,2,0,02000,02000,4,1,+015.7,+007.9,02,06,0000*72
$PERC,GPppf,+07.6,+004.7,0,18,0*4E
{"class":"TPV","mode":3,"time":"2026-02-12T21:37:25.000Z","ept":0.005,"lat":41.193317167,"lon":-111.942468167,"altHAE":1466.0000,"altMSL":1482.5000,"alt":1482.5000,"track":0.0000,"magtrack":348.3000,"magvar":11.2,"speed":0.051,"climb":0.000,"geoidSep":-16.500,"eph":17.670,"temp":21.340}
{"class":"OSC","running":true,"reference":true,"disciplined":true,"delta":7}
$PERC,GPppr,423464,02405,00050,12,0,0*4B
{"class":"TPV","mode":3,"time":"2026-02-12T21:37:25.000Z","ept":0.005,"lat":41.193317167,"lon":-111.942468167,"altHAE":1466.0000,"altMSL":1482.5000,"alt":1482.5000,"epx":9.864,"epy":10.223,"epv":37.131,"track":0.0000,"magtrack":348.3000,"magvar":11.2,"speed":0.051,"climb":0.000,"eps":20.45,"epc":74.26,"geoidSep":-16.500,"eph":17.670,"sep":35.562,"temp":21.340}
{"class":"SKY","gdop":2.21,"hdop":0.93,"pdop":1.87,"tdop":1.18,"xdop":0.66,"ydop":0.68,"vdop":1.61,"nSat":15,"uSat":12,"satellites":[{"PRN":24,"gnssid":0,"svid":24,"az":234.0,"el":35.0,"ss":31.0,"used":true},{"PRN":19,"gnssid":0,"svid":19,"az":60.0,"el":42.0,"ss":26.0,"used":true},{"PRN":25,"gnssid":0,"svid":25,"az":310.0,"el":16.0,"ss":20.0,"used":false},{"PRN":21,"gnssid":0,"svid":21,"az":156.0,"el":9.0,"ss":27.0,"used":false},{"PRN":11,"gnssid":0,"svid":11,"az":190.0,"el":61.0,"ss":37.0,"used":true},{"PRN":17,"gnssid":0,"svid":17,"az":70.0,"el":19.0,"ss":24.0,"used":true},{"PRN":12,"gnssid":0,"svid":12,"az":313.0,"el":56.0,"ss":45.0,"used":true},{"PRN":22,"gnssid":0,"svid":22,"az":123.0,"el":18.0,"ss":31.0,"used":true},{"PRN":6,"gnssid":0,"svid":6,"az":62.0,"el":64.0,"ss":25.0,"used":true},{"PRN":88,"gnssid":6,"svid":24,"az":239.0,"el":49.0,"ss":43.0,"used":true},{"PRN":77,"gnssid":6,"svid":13,"az":156.0,"el":70.0,"ss":26.0,"used":true},{"PRN":76,"gnssid":6,"svid":12,"az":148.0,"el":20.0,"ss":27.0,"used":true},{"PRN":70,"gnssid":6,"svid":6,"az":6.0,"el":2.0,"ss":19.0,"used":false},{"PRN":87,"gnssid":6,"svid":23,"az":25.0,"el":57.0,"ss":37.0,"used":true},{"PRN":78,"gnssid":6,"svid":14,"az":324.0,"el":46.0,"ss":38.0,"used":true}]}
{"class":"OSC","running":true,"reference":true,"disciplined":true,"delta":7}
$PERC,GPsts,2,0,2,010011111111011111*7B
{"class":"TPV","status":7,"mode":3,"time":"2026-02-12T21:37:25.000Z","ept":0.005,"lat":41.193317167,"lon":-111.942468167,"altHAE":1466.0000,"altMSL":1482.5000,"alt":1482.5000,"epx":9.864,"epy":10.223,"epv":37.131,"track":0.0000,"magtrack":348.3000,"magvar":11.2,"speed":0.051,"climb":0.000,"eps":20.45,"epc":74.26,"geoidSep":-16.500,"eph":17.670,"sep":35.562,"temp":21.340}
$GNZDA,213726.000,12,02,2026,,*4C
$GNGNS,213726.000,4111.59903,N,11156.54809,W,AANN,13,0.93,01482.5,-016.5,,*55
{"class":"SKY","hdop":0.93,"uSat":13}
$GNVTG,000.0,T,348.3,M,000.0,N,000.0,K,A*31
$GNGLL,4111.59903,N,11156.54809,W,213726.000,A,A*57
{"class":"TPV","mode":3,"time":"2026-02-12T21:37:26.000Z","ept":0.005,"lat":41.193317167,"lon":-111.942468167,"altHAE":1466.0000,"altMSL":1482.5000,"alt":1482.5000,"track":0.0000,"magtrack":348.3000,"magvar":11.2,"speed":0.000,"climb":0.000,"geoidSep":-16.500,"eph":17.670}
{"class":"SKY","hdop":0.93,"uSat":13}
$PTNLRBA,1,0*56
$PTNLRTP,T,21.35,3.0*2E
$PTNLRXO,1,-270.640*76
$PERC,GPdbg,1,3,1,0243100,0192500,0252001,0212705,0113700,0172600,0124600*56
$PERC,GPdbg,1,3,2,0223200,0062200,0884300,0772600,0762700,0701801,0873700*5A
$PERC,GPdbg,1,3,3,0783800,,,,,,*5B
$PERC,GPdbg,1,10,07FF,11,19,1,2,0,02000,02000,4,1,+015.7,+007.9,02,06,0000*72
$PERC,GPppf,-03.5,-023.3,0,18,0*48
{"class":"TPV","mode":3,"time":"2026-02-12T21:37:26.000Z","ept":0.005,"lat":41.193317167,"lon":-111.942468167,"altHAE":1466.0000,"altMSL":1482.5000,"alt":1482.5000,"track":0.0000,"magtrack":348.3000,"magvar":11.2,"speed":0.000,"climb":0.000,"geoidSep":-16.500,"eph":17.670,"temp":21.350}
{"class":"OSC","running":true,"reference":true,"disciplined":true,"delta":-3}
$PERC,GPppr,423465,02405,00050,12,0,0*4A
{"class":"TPV","mode":3,"time":"2026-02-12T21:37:26.000Z","ept":0.005,"lat":41.193317167,"lon":-111.942468167,"altHAE":1466.0000,"altMSL":1482.5000,"alt":1482.5000,"epx":9.864,"epy":10.223,"epv":37.131,"track":0.0000,"magtrack":348.3000,"magvar":11.2,"speed":0.000,"climb":0.000,"eps":20.45,"epc":74.26,"geoidSep":-16.500,"eph":17.670,"sep":35.562,"temp":21.350}
{"class":"SKY","gdop":2.21,"hdop":0.93,"pdop":1.87,"tdop":1.18,"xdop":0.66,"ydop":0.68,"vdop":1.61,"nSat":15,"uSat":12,"satellites":[{"PRN":24,"gnssid":0,"svid":24,"az":234.0,"el":35.0,"ss":31.0,"used":true},{"PRN":19,"gnssid":0,"svid":19,"az":60.0,"el":42.0,"ss":26.0,"used":true},{"PRN":25,"gnssid":0,"svid":25,"az":310.0,"el":16.0,"ss":20.0,"used":false},{"PRN":21,"gnssid":0,"svid":21,"az":156.0,"el":9.0,"ss":27.0,"used":false},{"PRN":11,"gnssid":0,"svid":11,"az":190.0,"el":61.0,"ss":37.0,"used":true},{"PRN":17,"gnssid":0,"svid":17,"az":70.0,"el":19.0,"ss":24.0,"used":true},{"PRN":12,"gnssid":0,"svid":12,"az":313.0,"el":56.0,"ss":45.0,"used":true},{"PRN":22,"gnssid":0,"svid":22,"az":123.0,"el":18.0,"ss":31.0,"used":true},{"PRN":6,"gnssid":0,"svid":6,"az":62.0,"el":64.0,"ss":25.0,"used":true},{"PRN":88,"gnssid":6,"svid":24,"az":239.0,"el":49.0,"ss":43.0,"used":true},{"PRN":77,"gnssid":6,"svid":13,"az":156.0,"el":70.0,"ss":26.0,"used":true},{"PRN":76,"gnssid":6,"svid":12,"az":148.0,"el":20.0,"ss":27.0,"used":true},{"PRN":70,"gnssid":6,"svid":6,"az":6.0,"el":2.0,"ss":19.0,"used":false},{"PRN":87,"gnssid":6,"svid":23,"az":25.0,"el":57.0,"ss":37.0,"used":true},{"PRN":78,"gnssid":6,"svid":14,"az":324.0,"el":46.0,"ss":38.0,"used":true}]}
{"class":"OSC","running":true,"reference":true,"disciplined":true,"delta":-3}
$PERC,GPsts,2,0,2,010011111111011111*7B
{"class":"TPV","status":7,"mode":3,"time":"2026-02-12T21:37:26.000Z","ept":0.005,"lat":41.193317167,"lon":-111.942468167,"altHAE":1466.0000,"altMSL":1482.5000,"alt":1482.5000,"epx":9.864,"epy":10.223,"epv":37.131,"track":0.0000,"magtrack":348.3000,"magvar":11.2,"speed":0.000,"climb":0.000,"eps":20.45,"epc":74.26,"geoidSep":-16.500,"eph":17.670,"sep":35.562,"temp":21.350}
$GNZDA,213727.000,12,02,2026,,*4D
$GNGNS,213727.000,4111.59903,N,11156.54809,W,AANN,13,0.93,01482.5,-016.5,,*54
{"class":"SKY","hdop":0.93,"uSat":13}
$GNVTG,000.0,T,348.3,M,000.0,N,000.1,K,A*30
$GNGLL,4111.59903,N,11156.54809,W,213727.000,A,A*56
{"class":"TPV","mode":3,"time":"2026-02-12T21:37:27.000Z","ept":0.005,"lat":41.193317167,"lon":-111.942468167,"altHAE":1466.0000,"altMSL":1482.5000,"alt":1482.5000,"track":0.0000,"magtrack":348.3000,"magvar":11.2,"speed":0.000,"climb":0.000,"geoidSep":-16.500,"eph":17.670}
{"class":"SKY","hdop":0.93,"uSat":13}
$PTNLRBA,1,0*56
$PTNLRTP,T,21.35,3.0*2E
$PTNLRXO,1,-270.695*7E
$PERC,GPdbg,1,3,1,0243100,0192500,0252001,0212705,0113700,0172600,0124600*56
$PERC,GPdbg,1,3,2,0223200,0062100,0884300,0772600,0762700,0701801,0873700*59
$PERC,GPdbg,1,3,3,0783800,,,,,,*5B
$PERC,GPdbg,1,10,07FF,11,19,1,2,0,02000,02000,4,1,+015.7,+007.9,02,06,0000*72
$PERC,GPppf,-04.4,-015.9,0,18,0*41
{"class":"TPV","mode":3,"time":"2026-02-12T21:37:27.000Z","ept":0.005,"lat":41.193317167,"lon":-111.942468167,"altHAE":1466.0000,"altMSL":1482.5000,"alt":1482.5000,"track":0.0000,"magtrack":348.3000,"magvar":11.2,"speed":0.000,"climb":0.000,"geoidSep":-16.500,"eph":17.670,"temp":21.350}
{"class":"OSC","running":true,"reference":true,"disciplined":true,"delta":-4}
$PERC,GPppr,423466,02405,00050,12,0,0*49
{"class":"TPV","mode":3,"time":"2026-02-12T21:37:27.000Z","ept":0.005,"lat":41.193317167,"lon":-111.942468167,"altHAE":1466.0000,"altMSL":1482.5000,"alt":1482.5000,"epx":9.864,"epy":10.223,"epv":37.131,"track":0.0000,"magtrack":348.3000,"magvar":11.2,"speed":0.000,"climb":0.000,"eps":20.45,"epc":74.26,"geoidSep":-16.500,"eph":17.670,"sep":35.562,"temp":21.350}
{"class":"SKY","gdop":2.21,"hdop":0.93,"pdop":1.87,"tdop":1.18,"xdop":0.66,"ydop":0.68,"vdop":1.61,"nSat":15,"uSat":12,"satellites":[{"PRN":24,"gnssid":0,"svid":24,"az":234.0,"el":35.0,"ss":31.0,"used":true},{"PRN":19,"gnssid":0,"svid":19,"az":60.0,"el":42.0,"ss":26.0,"used":true},{"PRN":25,"gnssid":0,"svid":25,"az":310.0,"el":16.0,"ss":20.0,"used":false},{"PRN":21,"gnssid":0,"svid":21,"az":156.0,"el":9.0,"ss":27.0,"used":false},{"PRN":11,"gnssid":0,"svid":11,"az":190.0,"el":61.0,"ss":37.0,"used":true},{"PRN":17,"gnssid":0,"svid":17,"az":70.0,"el":19.0,"ss":24.0,"used":true},{"PRN":12,"gnssid":0,"svid":12,"az":313.0,"el":56.0,"ss":45.0,"used":true},{"PRN":22,"gnssid":0,"svid":22,"az":123.0,"el":18.0,"ss":31.0,"used":true},{"PRN":6,"gnssid":0,"svid":6,"az":62.0,"el":64.0,"ss":25.0,"used":true},{"PRN":88,"gnssid":6,"svid":24,"az":239.0,"el":49.0,"ss":43.0,"used":true},{"PRN":77,"gnssid":6,"svid":13,"az":156.0,"el":70.0,"ss":26.0,"used":true},{"PRN":76,"gnssid":6,"svid":12,"az":148.0,"el":20.0,"ss":27.0,"used":true},{"PRN":70,"gnssid":6,"svid":6,"az":6.0,"el":2.0,"ss":19.0,"used":false},{"PRN":87,"gnssid":6,"svid":23,"az":25.0,"el":57.0,"ss":37.0,"used":true},{"PRN":78,"gnssid":6,"svid":14,"az":324.0,"el":46.0,"ss":38.0,"used":true}]}
{"class":"OSC","running":true,"reference":true,"disciplined":true,"delta":-4}
$PERC,GPsts,2,0,2,010011111111011111*7B
{"class":"TPV","status":7,"mode":3,"time":"2026-02-12T21:37:27.000Z","ept":0.005,"lat":41.193317167,"lon":-111.942468167,"altHAE":1466.0000,"altMSL":1482.5000,"alt":1482.5000,"epx":9.864,"epy":10.223,"epv":37.131,"track":0.0000,"magtrack":348.3000,"magvar":11.2,"speed":0.000,"climb":0.000,"eps":20.45,"epc":74.26,"geoidSep":-16.500,"eph":17.670,"sep":35.562,"temp":21.350}
$GNZDA,213728.000,12,02,2026,,*42
$GNGNS,213728.000,4111.59903,N,11156.54809,W,AANN,13,0.93,01482.5,-016.5,,*5B
{"class":"SKY","hdop":0.93,"uSat":13}
$GNVTG,000.0,T,348.3,M,000.0,N,000.0,K,A*31
$GNGLL,4111.59903,N,11156.54809,W,213728.000,A,A*59
{"class":"TPV","mode":3,"time":"2026-02-12T21:37:28.000Z","ept":0.005,"lat":41.193317167,"lon":-111.942468167,"altHAE":1466.0000,"altMSL":1482.5000,"alt":1482.5000,"track":0.0000,"magtrack":348.3000,"magvar":11.2,"speed":0.000,"climb":0.000,"geoidSep":-16.500,"eph":17.670}
{"class":"SKY","hdop":0.93,"uSat":13}
$PTNLRBA,1,0*56
$PTNLRTP,T,21.35,3.0*2E
$PTNLRXO,1,-270.816*7B
$PERC,GPdbg,1,3,1,0243100,0192500,0252001,0212705,0113700,0172600,0124600*56
$PERC,GPdbg,1,3,2,0223200,0062100,0884300,0772600,0762700,0701801,0873700*59
$PERC,GPdbg,1,3,3,0783800,,,,,,*5B
$PERC,GPdbg,1,10,07FF,11,19,1,2,0,02000,02000,4,1,+015.8,+007.9,02,06,0000*7D
$PERC,GPppf,+06.4,+014.9,0,18,0*42
{"class":"TPV","mode":3,"time":"2026-02-12T21:37:28.000Z","ept":0.005,"lat":41.193317167,"lon":-111.942468167,"altHAE":1466.0000,"altMSL":1482.5000,"alt":1482.5000,"track":0.0000,"magtrack":348.3000,"magvar":11.2,"speed":0.000,"climb":0.000,"geoidSep":-16.500,"eph":17.670,"temp":21.350}
{"class":"OSC","running":true,"reference":true,"disciplined":true,"delta":6}
$PERC,GPppr,423467,02405,00050,12,0,0*48
{"class":"TPV","mode":3,"time":"2026-02-12T21:37:28.000Z","ept":0.005,"lat":41.193317167,"lon":-111.942468167,"altHAE":1466.0000,"altMSL":1482.5000,"alt":1482.5000,"epx":9.864,"epy":10.223,"epv":37.131,"track":0.0000,"magtrack":348.3000,"magvar":11.2,"speed":0.000,"climb":0.000,"eps":20.45,"epc":74.26,"geoidSep":-16.500,"eph":17.670,"sep":35.562,"temp":21.350}
{"class":"SKY","gdop":2.21,"hdop":0.93,"pdop":1.87,"tdop":1.18,"xdop":0.66,"ydop":0.68,"vdop":1.61,"nSat":15,"uSat":12,"satellites":[{"PRN":24,"gnssid":0,"svid":24,"az":234.0,"el":35.0,"ss":31.0,"used":true},{"PRN":19,"gnssid":0,"svid":19,"az":60.0,"el":42.0,"ss":26.0,"used":true},{"PRN":25,"gnssid":0,"svid":25,"az":310.0,"el":16.0,"ss":20.0,"used":false},{"PRN":21,"gnssid":0,"svid":21,"az":156.0,"el":9.0,"ss":27.0,"used":false},{"PRN":11,"gnssid":0,"svid":11,"az":190.0,"el":61.0,"ss":37.0,"used":true},{"PRN":17,"gnssid":0,"svid":17,"az":70.0,"el":19.0,"ss":24.0,"used":true},{"PRN":12,"gnssid":0,"svid":12,"az":313.0,"el":56.0,"ss":45.0,"used":true},{"PRN":22,"gnssid":0,"svid":22,"az":123.0,"el":18.0,"ss":31.0,"used":true},{"PRN":6,"gnssid":0,"svid":6,"az":62.0,"el":64.0,"ss":25.0,"used":true},{"PRN":88,"gnssid":6,"svid":24,"az":239.0,"el":49.0,"ss":43.0,"used":true},{"PRN":77,"gnssid":6,"svid":13,"az":156.0,"el":70.0,"ss":26.0,"used":true},{"PRN":76,"gnssid":6,"svid":12,"az":148.0,"el":20.0,"ss":27.0,"used":true},{"PRN":70,"gnssid":6,"svid":6,"az":6.0,"el":2.0,"ss":19.0,"used":false},{"PRN":87,"gnssid":6,"svid":23,"az":25.0,"el":57.0,"ss":37.0,"used":true},{"PRN":78,"gnssid":6,"svid":14,"az":324.0,"el":46.0,"ss":38.0,"used":true}]}
{"class":"OSC","running":true,"reference":true,"disciplined":true,"delta":6}
$PERC,GPsts,2,0,2,010011111111011111*7B
{"class":"TPV","status":7,"mode":3,"time":"2026-02-12T21:37:28.000Z","ept":0.005,"lat":41.193317167,"lon":-111.942468167,"altHAE":1466.0000,"altMSL":1482.5000,"alt":1482.5000,"epx":9.864,"epy":10.223,"epv":37.131,"track":0.0000,"magtrack":348.3000,"magvar":11.2,"speed":0.000,"climb":0.000,"eps":20.45,"epc":74.26,"geoidSep":-16.500,"eph":17.670,"sep":35.562,"temp":21.350}
$GNZDA,213729.000,12,02,2026,,*43
$GNGNS,213729.000,4111.59903,N,11156.54809,W,AANN,13,0.93,01482.5,-016.5,,*5A
{"class":"SKY","hdop":0.93,"uSat":13}
$GNVTG,000.0,T,348.3,M,000.0,N,000.0,K,A*31
$GNGLL,4111.59903,N,11156.54809,W,213729.000,A,A*58
{"class":"TPV","mode":3,"time":"2026-02-12T21:37:29.000Z","ept":0.005,"lat":41.193317167,"lon":-111.942468167,"altHAE":1466.0000,"altMSL":1482.5000,"alt":1482.5000,"track":0.0000,"magtrack":348.3000,"magvar":11.2,"speed":0.000,"climb":0.000,"geoidSep":-16.500,"eph":17.670}
{"class":"SKY","hdop":0.93,"uSat":13}
$PTNLRBA,1,0*56
$PTNLRTP,T,21.35,3.0*2E
$PTNLRXO,1,-270.845*7D
$PERC,GPdbg,1,3,1,0243100,0192500,0252001,0212705,0113700,0172600,0124600*56
$PERC,GPdbg,1,3,2,0223200,0062000,0884400,0772600,0762800,0701801,0873700*50
$PERC,GPdbg,1,3,3,0783800,,,,,,*5B
$PERC,GPdbg,1,10,07FF,11,19,1,2,0,02000,02000,4,1,+015.8,+007.9,02,06,0000*7D
$PERC,GPppf,+05.2,+015.3,0,18,0*4C
{"class":"TPV","mode":3,"time":"2026-02-12T21:37:29.000Z","ept":0.005,"lat":41.193317167,"lon":-111.942468167,"altHAE":1466.0000,"altMSL":1482.5000,"alt":1482.5000,"track":0.0000,"magtrack":348.3000,"magvar":11.2,"speed":0.000,"climb":0.000,"geoidSep":-16.500,"eph":17.670,"temp":21.350}
{"class":"OSC","running":true,"reference":true,"disciplined":true,"delta":5}
$PERC,GPppr,423468,02405,00050,12,0,0*47
{"class":"TPV","mode":3,"time":"2026-02-12T21:37:29.000Z","ept":0.005,"lat":41.193317167,"lon":-111.942468167,"altHAE":1466.0000,"altMSL":1482.5000,"alt":1482.5000,"epx":9.864,"epy":10.223,"epv":37.131,"track":0.0000,"magtrack":348.3000,"magvar":11.2,"speed":0.000,"climb":0.000,"eps":20.45,"epc":74.26,"geoidSep":-16.500,"eph":17.670,"sep":35.562,"temp":21.350}
